place_id,nombre,lat,lng,direccion,tipos,match_denue,nombre_denue,fuzzy_score,distancia_m,es_informal
places/ChIJM-6fFUptVo8RG0z3nTH6qFg,Rancho la Flor,20.853289399999998,-89.6695787,,"event_venue,point_of_interest,establishment",False,,0.0,9999.0,True
places/ChIJE36TB-BsVo8RrUO7JfU5r9c,Procon Planta Ticimul,20.854356,-89.68156599999999,,"point_of_interest,establishment",False,,0.0,9999.0,True
places/ChIJj2-fpgJtVo8ROvc8n53Y_HM,31DPR0847C PRIMARIA LAZARO CARDENAS DEL RIO,20.8553289,-89.6714125,,"primary_school,school,educational_institution,point_of_interest,establishment",False,,0.0,9999.0,True
places/ChIJI9ULeABtVo8RevFE83erdA4,Campo de béisbol Dzununcán,20.8628389,-89.6532594,,"sports_club,association_or_organization,point_of_interest,establishment",False,,0.0,9999.0,True
places/ChIJKYNgyq5tVo8ReBRdNeuo5yc,"Quinta ""Mis Cuatro Amores""",20.8624319,-89.6579549,,"storage,point_of_interest,establishment",False,,0.0,9999.0,True
places/ChIJd9RvxI5tVo8RvAi0gSCy4k4,Hacienda San Miguel,20.8605531,-89.67916919999999,,"event_venue,point_of_interest,service,establishment",False,,0.0,9999.0,True
places/ChIJp_mgZBdtVo8RlUbxV_kZgPY,TALLER EL TAPATIO,20.8569952,-89.6564484,,"car_repair,point_of_interest,service,establishment",False,,0.0,9999.0,True
places/ChIJqTCiGfNtVo8RAkmuS0RQONY,Aquafarm Geotanques de México,20.8665304,-89.6613205,,"farm,point_of_interest,service,establishment",False,,0.0,9999.0,True
places/ChIJdVxZLTVtVo8R0f3oiXono1Y,Hacienda La Aventura,20.859222199999998,-89.6609412,,"point_of_interest,service,establishment",False,,0.0,9999.0,True
places/ChIJUUfTmsRtVo8RZ2ZsHqMdcpQ,La chingada,20.854694,-89.65651129999999,,"housing_complex,point_of_interest,service,establishment",False,,0.0,9999.0,True
places/ChIJ89o7XwBtVo8R55kwxx5kQSI,Taller Gompar,20.8578261,-89.66423239999999,,"point_of_interest,establishment",False,,0.0,9999.0,True
places/ChIJv8mYJABtVo8Rgpkxkl6Txd0,Xcucul hacienda,20.8641339,-89.65694340000002,,"ranch,farm,point_of_interest,service,establishment",False,,0.0,9999.0,True
places/ChIJ5UUfZABtVo8RcyybxG97Kig,Jamybo,20.859055899999998,-89.6627082,,"garden,point_of_interest,establishment",False,,0.0,9999.0,True
places/ChIJd7bnmwhtVo8RlmA-VOCgNtk,ALMED CARPINTERIA,20.854573,-89.6712239,,"manufacturer,point_of_interest,service,establishment",False,,0.0,9999.0,True
places/ChIJedC3EedtVo8R82lfXZW4KyU,Chatarreria LA BODEGA,20.8641875,-89.6586875,,"point_of_interest,service,establishment",False,,0.0,9999.0,True
places/ChIJ6xeMylRtVo8RfWBEcd8MsMk,Taller KONE,20.8596565,-89.6708926,,"car_repair,point_of_interest,service,establishment",False,,0.0,9999.0,True
places/ChIJORrh4rFtVo8R4FlHrlMKHIM,SIX .La Escondida,20.8617569,-89.6533309,,"liquor_store,store,point_of_interest,establishment",False,YUC SIX LA ESCONDIDA,70.27027027027026,0.9,True
places/ChIJn65Qqa9tVo8R3KbyvFbuTqM,Cocina Toñita,20.864330499999998,-89.6553383,,"restaurant,food,point_of_interest,establishment",False,FARMACIA SIMILARES DZUNUNCAN,34.14634146341463,36.4,True
places/ChIJM9n4iNhtVo8R3v4F2fD8zdw,Taqueria Nivoros,20.8327824,-89.6602592,,"restaurant,food,point_of_interest,establishment",False,PIZZERIA Y TACOS AL PASTOR NIVORO S,47.05882352941176,12.2,True
places/ChIJie_UbNFtVo8R0oLPvflKGiM,Seminario Bautista Piedra Angular,20.86234,-89.631479,,"educational_institution,point_of_interest,establishment",False,,0.0,9999.0,True
places/ChIJ8xcKKg1tVo8RGQoLIbwyQvc,Fragranzhub,20.8649746,-89.65148820000002,,"cosmetics_store,clothing_store,store,point_of_interest,establishment",False,,0.0,9999.0,True
places/ChIJeRtkkoltVo8R2JlpLwrX9Sw,Quinta: Villa Romina,20.860045,-89.64277039999999,,"event_venue,point_of_interest,establishment",False,,0.0,9999.0,True
places/ChIJiwFeWVFtVo8RCHc9Lf790wQ,Vivero Lol Pak'al,20.862670299999998,-89.64676779999999,,"garden_center,store,point_of_interest,service,establishment",False,,0.0,9999.0,True
places/ChIJgfVn7ottVo8RG9CAVVaPhvQ,"Rancho ""Los Juanes""",20.8606975,-89.6410547,,"farm,school,educational_institution,point_of_interest,service,establishment",False,,0.0,9999.0,True
places/ChIJD58WaQBtVo8RvXZQonQz4A4,San jorge (familia A.M),20.8605356,-89.63335610000001,,"ranch,farm,point_of_interest,service,establishment",False,,0.0,9999.0,True
places/ChIJFzQBp3ltVo8RzRmG93Eks0k,Tienda los 2 hermanos,20.842983,-89.63458,,"store,point_of_interest,establishment",False,,0.0,9999.0,True
places/ChIJ6dRTdQBtVo8RSi6t7z0gSC4,Taller Mecánico y Eléctrico Movil,20.856894399999998,-89.6554879,,"car_repair,point_of_interest,service,establishment",False,,0.0,9999.0,True
places/ChIJTRPFqkBtVo8RzosA4xOSP7c,Quinta Palmar,20.848886699999998,-89.65782659999999,,"park,point_of_interest,establishment",False,,0.0,9999.0,True
places/ChIJBY5q4q9tVo8RLlJiB4WdBwQ,Dzununcan Township Municipal Commission Building,20.865741999999997,-89.6534688,,"point_of_interest,service,local_government_office,government_office,establishment",False,,0.0,9999.0,True
places/ChIJ-VRv1kNtVo8R1N0U6va4cEg,Pizza EL HOGAR,20.863414900000002,-89.65067169999999,,"pizza_restaurant,restaurant,food,point_of_interest,establishment",False,,0.0,9999.0,True
places/ChIJL8Q5z9RtVo8R5IUY-tjg8eA,Hacienda Chantún,20.845187499999998,-89.642074,,"historical_landmark,historical_place,point_of_interest,establishment",False,,0.0,9999.0,True
places/ChIJUQyyEihvVo8Rvprc_UcOUhc,Recinto Ferial Xmatkuil,20.8552589,-89.61504769999999,,"event_venue,point_of_interest,establishment",False,,0.0,9999.0,True
places/ChIJHx0n_nduVo8RIzp1ibpIUR8,Faculty of Veterinary Medicine,20.8672585,-89.6247968,,"university,academic_department,educational_institution,point_of_interest,establishment",False,,0.0,9999.0,True
places/ChIJI4zdqX1uVo8RNmIP3ZZVkFw,Centro de Espectáculos Montejo,20.8574715,-89.61821909999999,,"concert_hall,auditorium,live_music_venue,event_venue,point_of_interest,establishment",False,,0.0,9999.0,True
places/ChIJFaet-HduVo8RdQbASfBkqsk,UADY - Campus de Ciencias Biológicas y Agropecuarias,20.8668036,-89.6248334,,"academic_department,point_of_interest,establishment",False,,0.0,9999.0,True
places/ChIJt_IHwmFuVo8R8JTkKYXsTYM,Reserva Ecológica Cuxtal,20.8559072,-89.6098561,,"nature_preserve,wildlife_refuge,park,point_of_interest,establishment",False,,0.0,9999.0,True
places/ChIJNV2YGX9uVo8RXaismVkkq9U,CBTA No. 13 Xmatkuil,20.8590646,-89.62328169999999,,"school,educational_institution,point_of_interest,government_office,establishment",False,,0.0,9999.0,True
places/ChIJ4zHgdNVvVo8Ru8vfer9Dr90,Juegos mecánicos Feria Xmatkuil,20.8582328,-89.6131604,,"amusement_park,point_of_interest,establishment",False,,0.0,9999.0,True
places/ChIJP4ZdOABvVo8R3gp72c-O6RI,Ciudad Carnaval,20.8553973,-89.61505369999999,,"event_venue,point_of_interest,establishment",False,,0.0,9999.0,True
places/ChIJGWdyb8NvVo8RSL8XH05W9PU,Arco de la feria Xmatkuil.,20.860031199999998,-89.6153313,,"historical_landmark,historical_place,point_of_interest,establishment",False,,0.0,9999.0,True
places/ChIJg5qtzXxuVo8Rgu8wpNqSKv4,Palenque De Xmatkuil,20.858760699999998,-89.6159285,,"point_of_interest,establishment",False,,0.0,9999.0,True
places/ChIJlW-4UwBvVo8RGaTyPE4nSCU,Arrancodromo Xmatkuil,20.859854499999997,-89.6196205,,"sports_club,association_or_organization,point_of_interest,establishment",False,,0.0,9999.0,True
places/ChIJ57KiAtZtVo8Rl9gGeB8AM1M,Comisaría municipal de Xmatkuil,20.8615434,-89.6247685,,"point_of_interest,establishment",False,,0.0,9999.0,True
places/ChIJf0mYwK1vVo8RzqF6EHvhkPk,Accesos a estacionamientos de la Feria Xmatkuil.,20.859701299999998,-89.61959569999999,,"parking_lot,parking,transportation_service,service,point_of_interest,establishment",False,,0.0,9999.0,True
places/ChIJoT7lamNuVo8RjAWNI0aNM0U,Teatro del Pueblo,20.859465699999998,-89.6144539,,"event_venue,point_of_interest,establishment",False,,0.0,9999.0,True
places/ChIJu5VPNq9vVo8RCAfmqhXxDMI,Comisaría San Ignacio Tesip,20.842353499999998,-89.6117864,,"event_venue,point_of_interest,establishment",False,,0.0,9999.0,True
places/ChIJ24eRQwBvVo8R-kEhvgOSH-U,Estacionamiento,20.8528923,-89.6178226,,"condominium_complex,service,point_of_interest,establishment",False,,0.0,9999.0,True
places/ChIJMQUCuzNvVo8RyneF4EebAIU,Fuente de la Feria Xmatkuil.,20.8549118,-89.61505369999999,,"tourist_attraction,point_of_interest,establishment",False,,0.0,9999.0,True
places/ChIJg-XgU31uVo8R59QeJWeXqnk,Paradero Centro Xmatkuil,20.8553207,-89.6160295,,"parking_lot,parking,transportation_service,service,point_of_interest,establishment",False,,0.0,9999.0,True
places/ChIJOX4hNGNuVo8R0bjtkuhZMaA,"Castillo de los Sueños ""Castillo Coca-cola"".",20.8590984,-89.6154717,,"performing_arts_theater,event_venue,point_of_interest,establishment",False,,0.0,9999.0,True
places/ChIJbVuTllJvVo8RXZIdPBVktzs,JAPAY Planta Merida 1,20.8473927,-89.5970833,,"corporate_office,point_of_interest,establishment",False,,0.0,9999.0,True
places/ChIJ9wZfRWNuVo8RVtzR4yXcJBc,"Nave Ayuntamiento Merida, Feria Xmatkuil",20.8599209,-89.6150108,,"event_venue,point_of_interest,service,establishment",False,,0.0,9999.0,True
places/ChIJhTxqUiRvVo8RoJcpuktmfzM,"Plaza principal de la Feria Xamtkuil.""K'íiwik Feria Xmatkuil""",20.8558175,-89.6150842,,"park,point_of_interest,establishment",False,BANORTE IXE,13.888888888888884,30.5,True
places/ChIJLS7_FgBvVo8RV0ychptd8U0,Feria yucatan DiDi,20.860200199999998,-89.6152808,,"transportation_service,point_of_interest,establishment",False,,0.0,9999.0,True
places/ChIJyemG7a9vVo8RASxGU6I-hXY,Hacienda San Pedro Chimay,20.865423399999997,-89.57865939999999,,"service,point_of_interest,establishment",False,,0.0,9999.0,True
places/ChIJkWtyXKRxVo8RuL57noJpp_0,ADAPTIKA FURNITURE,20.851990699999998,-89.5687561,,"manufacturer,point_of_interest,establishment",False,,0.0,9999.0,True
places/ChIJOb3Quy1vVo8RLoZbMBVeZ20,Estructuras Metalicas Titan merida yucatan,20.8520578,-89.5682003,,"manufacturer,point_of_interest,establishment",False,,0.0,9999.0,True
places/ChIJJxKpgsZvVo8Rr3Ellj67h6A,Bioparque Pak’al K’aax,20.865724,-89.5896612,,"park,point_of_interest,establishment",False,,0.0,9999.0,True
places/ChIJCXtNk7hvVo8R2izYwvk_26Y,POLVORIN DEPSA,20.8471694,-89.58511260000002,,"lodging,point_of_interest,establishment",False,,0.0,9999.0,True
places/ChIJT2pCpq9vVo8RQ2x-EjIU7zU,Jardin De Niños Nachi Cocom,20.8640529,-89.57925329999999,,"preschool,child_care_agency,school,educational_institution,service,point_of_interest,establishment",False,,0.0,9999.0,True
places/ChIJcQgGcARvVo8RbJ0R1Pmdbgs,Expendio Viktoria,20.863061599999998,-89.57939999999999,,"store,point_of_interest,establishment",False,,0.0,9999.0,True
places/ChIJYWRpu2dvVo8RK4hTvIOFXDk,GRUPO DIPOPAH,20.8591403,-89.57104489999999,,"wholesaler,point_of_interest,establishment",False,,0.0,9999.0,True
places/ChIJvbYMRJBvVo8Rk-deUgMJ_Q4,Comisaría Municipal de San Pedro Chimay,20.865522199999997,-89.5796969,,"government_office,point_of_interest,establishment",False,,0.0,9999.0,True
places/ChIJD2KtJq9vVo8Rl7DVVCOL_4U,EMILIANO ZAPATA,20.8617414,-89.5800883,,"educational_institution,point_of_interest,establishment",False,,0.0,9999.0,True
places/ChIJ8-m1VQBvVo8RWq1ikeMgy_M,Crea Algo Bonito,20.864763699999997,-89.5814771,,"manufacturer,service,store,point_of_interest,establishment",False,,0.0,9999.0,True
places/ChIJn4MX6OdvVo8RqmSc-OA6TlE,Iglesia católica San Pedro y San Pablo,20.8648561,-89.5798409,,"church,place_of_worship,association_or_organization,point_of_interest,establishment",False,,0.0,9999.0,True
places/ChIJhdzdqxlvVo8RkSTISaQGFPo,Tiendas Six,20.865703,-89.5813555,,"liquor_store,grocery_store,food_store,food,store,point_of_interest,establishment",False,,0.0,9999.0,True
places/ChIJs_mEXABvVo8RmDEMBlb3XEs,Quinta la vanidosa,20.844203399999998,-89.60248349999999,,"condominium_complex,service,point_of_interest,establishment",False,,0.0,9999.0,True
places/ChIJ4SjbzzhvVo8RTkM7cVbKBU0,Molino y Tortillería La Guadalupana,20.8599994,-89.5977561,,"food_store,food,store,point_of_interest,establishment",False,,0.0,9999.0,True
places/ChIJqeucRadvVo8Rmhg9QAAEETs,"Ferrotlapaleria ""Emmanuel""",20.865874299999998,-89.5804331,,"building_materials_store,store,point_of_interest,establishment",False,,0.0,9999.0,True
places/ChIJVbuLH-xvVo8RneMiCISuggA,Pollos San Rafael,20.861018299999998,-89.60011349999999,,"ranch,manufacturer,food,farm,service,point_of_interest,establishment",False,,0.0,9999.0,True
places/ChIJuXFuBK9vVo8RYGqZdZLZaFY,Tienda Wicel,20.8632292,-89.58007479999999,,"store,point_of_interest,establishment",False,,0.0,9999.0,True
places/ChIJSQ2SI-dvVo8R8o2rrwljeSc,Quinta Margarita María,20.848611899999998,-89.59796399999999,,"playground,point_of_interest,establishment",False,,0.0,9999.0,True
places/ChIJj64DnzJvVo8RcbJOC8N7QLA,Sovic constructora,20.8528914,-89.5676319,,"service,point_of_interest,establishment",False,,0.0,9999.0,True
places/ChIJhxvAc5BvVo8R2736Nwd3Akk,Rancho EL ENCUENTRO,20.8621813,-89.5722483,,"farm,service,point_of_interest,establishment",False,,0.0,9999.0,True
places/ChIJpyMwT3VvVo8RfDj_pEfgFPI,Mini Super Mi Ranchito,20.8535213,-89.5680465,,"store,point_of_interest,establishment",False,,0.0,9999.0,True
places/ChIJETGiJlpvVo8RPcr4QNEWjjI,Villa Claudina. Casa de Campo,20.8629107,-89.57217089999999,,"garden,point_of_interest,establishment",False,,0.0,9999.0,True
places/ChIJcYsIQX1vVo8Rcb0RqlZMDTY,Rancho San Enrique,20.8449191,-89.5635288,,"ranch,government_office,food,farm,service,point_of_interest,establishment",False,,0.0,9999.0,True
places/ChIJ8T_SzI1vVo8R4TxZLjOOCvA,Rancho Gema,20.8578622,-89.5709392,,"farm,service,point_of_interest,establishment",False,,0.0,9999.0,True
places/ChIJGX9LcAhvVo8RDxuKWQfamdY,Fam Soberanis,20.863960499999997,-89.5746466,,"garden,point_of_interest,establishment",False,,0.0,9999.0,True
places/ChIJE5YEelpvVo8RdLFBEFaY2QQ,Rancho los Laureles,20.860239399999998,-89.57077199999999,,"association_or_organization,service,point_of_interest,establishment",False,,0.0,9999.0,True
places/ChIJlxQX6i1vVo8RdLNdgf_W_rM,El rosario,20.8421523,-89.5634728,,"health,consultant,service,point_of_interest,establishment",False,,0.0,9999.0,True
places/ChIJSRrUMQBvVo8Rdnc5mqrCgUU,La Sagrada Familia,20.8468704,-89.56470259999999,,"private_guest_room,lodging,point_of_interest,establishment",False,,0.0,9999.0,True
places/ChIJ315KZQBvVo8RWjcN1OtCHFY,Chen Ox Granja Agroecológica,20.8643668,-89.57668579999999,,"farm,school,educational_institution,service,point_of_interest,establishment",False,,0.0,9999.0,True
places/ChIJ63EqKKVvVo8RQoC8cnEwU2Q,Rancho El encanto,20.8622393,-89.5660431,,"playground,point_of_interest,establishment",False,,0.0,9999.0,True
places/ChIJ3WeyBwBvVo8RkNUUSN1r7oQ,Rancho Los Faraones,20.8537152,-89.56806139999999,,"housing_complex,service,point_of_interest,establishment",False,,0.0,9999.0,True
places/ChIJaxWAZOJtVo8R_1POVtY_fZk,Fracc. Santa Cruz Norte,20.881681099999998,-89.67313050000001,,"service,point_of_interest,establishment",False,GRUPO VIVE DESARROLLO DEL SURESTE,28.57142857142857,23.9,True
places/ChIJnwPBCgBtVo8RYeiU3--zWjY,Ticimul,20.8825432,-89.6868642,,"housing_complex,service,point_of_interest,establishment",False,,0.0,9999.0,True
places/ChIJ_9NrrgNtVo8RdBNq3KuC3nw,Logística Togua,20.8847295,-89.6894416,,"point_of_interest,establishment",False,,0.0,9999.0,True
places/ChIJpcpnGCttVo8RPbtESOo0hQc,"Cochinita ""EL CAPI""",20.8829942,-89.6748654,,"butcher_shop,food_store,food,manufacturer,store,service,point_of_interest,establishment",False,PESCADERIA KARY,29.411764705882348,21.7,True
places/ChIJ-d8YOwBtVo8RzetlFE3n-ug,Grupo Zamudio,20.8628532,-89.6815895,,"point_of_interest,establishment",False,,0.0,9999.0,True
places/ChIJF6739j5tVo8R0cx-WZOql3U,ECISA Construcciones- Planta Mérida,20.874887899999997,-89.6840381,,"manufacturer,point_of_interest,establishment",False,,0.0,9999.0,True
places/ChIJkw910UZtVo8Rb8G1S6Vm9QE,Panadería boxito,20.8817412,-89.67488949999999,,"bakery,food_store,food,store,point_of_interest,establishment",False,PANADERIA Y PIZZERIA BOXITO,69.76744186046511,7.6,True
places/ChIJ0_BhLkBtVo8R3_prR-7oxPQ,Parque Central,20.881377,-89.6820644,,"park,point_of_interest,establishment",False,,0.0,9999.0,True
places/ChIJCwKFJUBtVo8RqPDKlVZ_8iw,Hacienda Ticimul Spa,20.8808911,-89.68190580000001,,"health,point_of_interest,establishment",False,,0.0,9999.0,True
places/ChIJ1cx2UEBtVo8R6jD-S6gDQFE,concreto,20.8810796,-89.6834375,,"corporate_office,point_of_interest,establishment",False,,0.0,9999.0,True
places/ChIJ068ZaJNtVo8RjSuM-zI4IfU,Tiendas Six,20.882714,-89.672975,,"liquor_store,grocery_store,food_store,food,store,point_of_interest,establishment",False,TIENDA DE ABARROTES 7 ENANOS,41.02564102564102,7.3,True
places/ChIJOZvhpCBtVo8R754KE-_ysgg,Tienda Roy &Jimena,20.8823416,-89.6732557,,"home_goods_store,store,point_of_interest,establishment",False,TIENDA DE ABARROTES ROY,58.53658536585367,12.6,True
places/ChIJmbLehsQLVo8R2SMQUo5ziWc,"Limpieza de fosas sépticas, sumideros, pozos SERVICIO REJÓN",20.873806899999998,-89.6847466,,"service,point_of_interest,establishment",False,,0.0,9999.0,True
places/ChIJq45RqmhtVo8Rxz7620qsWiY,Mool Agregados,20.8608521,-89.6820978,,"service,point_of_interest,establishment",False,,0.0,9999.0,True
places/ChIJb1RbegBtVo8RTrl9Hp44w-E,Grupo Vive,20.881911799999997,-89.6729708,,"government_office,point_of_interest,establishment",False,GRUPO VIVE DESARROLLO DEL SURESTE,46.51162790697675,14.8,True
places/ChIJZRgMkxVtVo8RMwQ90w0Pg0Y,Mini super San carlos,20.8819961,-89.6845317,,"grocery_store,food_store,food,store,point_of_interest,establishment",False,,0.0,9999.0,True
places/ChIJHZJq8JdtVo8RGZabRzYUPAg,Hacienda Santa Cruz,20.8796538,-89.65332599999999,,"hotel,lodging,spa,restaurant,food,point_of_interest,establishment",False,,0.0,9999.0,True
places/ChIJRaDDUhdtVo8RlDIXbN0UhMQ,DESECHABLES POLIYUCA CEDIS.,20.879885899999998,-89.65600979999999,,"convenience_store,supplier,manufacturer,food_store,store,food,point_of_interest,establishment",False,,0.0,9999.0,True
places/ChIJ_aO9gVxtVo8REpKbJKscL70,Comercializadora La Chinita Dzununcan,20.8675583,-89.65472749999999,,"general_store,food_store,store,food,point_of_interest,establishment",False,,0.0,9999.0,True
places/ChIJs-OnFdltVo8RFkQ0-kkFWnM,FULL SERVICE MECÁNICA DIESEL,20.8772278,-89.6527254,,"car_repair,point_of_interest,service,establishment",False,,0.0,9999.0,True
places/ChIJxR4eHbBtVo8RHV1doaB23AA,Dzununcan Ejidal Commission,20.866264299999997,-89.6532196,,"government_office,point_of_interest,establishment",False,,0.0,9999.0,True
places/ChIJGRT46XptVo8REJzoJGIXZco,Martillos Hidráulicos de la Península MHP,20.8683002,-89.6505176,,"car_repair,point_of_interest,service,establishment",False,,0.0,9999.0,True
places/ChIJ2fFUHJhtVo8R2StvJmFoN6E,Parque Comisaria Santa Cruz,20.8795325,-89.6537543,,"park,point_of_interest,establishment",False,,0.0,9999.0,True
places/ChIJgWtv299tVo8RlmYEATThBGQ,Mosaicos Dzununcan Fabrica,20.8708457,-89.65426629999999,,"building_materials_store,store,point_of_interest,establishment",False,,0.0,9999.0,True
places/ChIJERQ9ZaVtVo8RCulvpmF0J8w,Telesecundaria 31ETV0104J Rómulo Rozo,20.8674799,-89.6550992,,"secondary_school,school,educational_institution,point_of_interest,establishment",False,,0.0,9999.0,True
places/ChIJS3IZMEhtVo8RhgtcYX7-ctM,Restaurante Valentina,20.8800334,-89.6531929,,"mexican_restaurant,family_restaurant,restaurant,food,point_of_interest,establishment",False,,0.0,9999.0,True
places/ChIJLRkObh9tVo8RO4WtxEwG4-I,Rancho Don Chencho,20.872534100000003,-89.6582205,,"lodging,point_of_interest,establishment",False,,0.0,9999.0,True
places/ChIJnwk6-KhtVo8RcNUMGl2dUeo,PISTA DE MOTOCROSS ACME MX,20.8828414,-89.65820440000002,,"race_course,event_venue,sports_activity_location,point_of_interest,establishment",False,,0.0,9999.0,True
places/ChIJU2NnqrptVo8R_Zy-SBuZKic,Escuela Primaria Lic. Manuel Berzunza,20.8669556,-89.6532319,,"primary_school,school,educational_institution,point_of_interest,establishment",False,,0.0,9999.0,True
places/ChIJ64MMKABvVo8RXkwqnW8aYbw,Bodegas Mamsa,20.884441,-89.6232222,,"winery,farm,manufacturer,food,point_of_interest,service,establishment",False,,0.0,9999.0,True
places/ChIJhV35jChtVo8RqhH13d7i0j8,TARSIS LOGÍSTICA,20.875869299999998,-89.6263271,,"shipping_service,transportation_service,point_of_interest,service,establishment",False,,0.0,9999.0,True
places/ChIJfYlftE9uVo8RCsFueEQ3EN8,Gotcha War Ops.,20.868623499999998,-89.59473500000001,,"paintball_center,sports_complex,athletic_field,sports_activity_location,point_of_interest,establishment",False,,0.0,9999.0,True
places/ChIJjWssTb9vVo8RbyIi0DXXJDo,Rancho Los Arrayanes,20.8813267,-89.5969204,,"amusement_center,tour_agency,travel_agency,lodging,breakfast_restaurant,service,restaurant,point_of_interest,food,establishment",False,,0.0,9999.0,True
places/ChIJXx-g_81vVo8RUigNNW7Fyao,Centro de acopio AGRANS 42 Sur,20.8779817,-89.5951305,,"point_of_interest,food,establishment",False,,0.0,9999.0,True
places/ChIJwdzBBTlvVo8RRl-JazJgg6Y,Grupo Maderero Burgos,20.8670164,-89.5948611,,"furniture_store,home_improvement_store,building_materials_store,home_goods_store,store,point_of_interest,establishment",False,,0.0,9999.0,True
places/ChIJYb3XNABvVo8Rxv5XNd5g4MA,Fletes San Javier merida,20.8718672,-89.5895297,,"association_or_organization,point_of_interest,establishment",False,,0.0,9999.0,True
places/ChIJ62kcILBvVo8RzQSUuquJx2c,Hacienda San Pedro Chimay Main Park,20.866761099999998,-89.5792481,,"park,point_of_interest,establishment",False,,0.0,9999.0,True
places/ChIJvdCxJwBvVo8RmuUtTAbVbBY,Quinta San Jacinto,20.8700544,-89.5755109,,"point_of_interest,establishment",False,,0.0,9999.0,True
places/ChIJ93vUcwBvVo8R-1O3bJndBfc,"ZENTAUR venta, renta y transporte",20.8703929,-89.5861724,,"point_of_interest,establishment",False,,0.0,9999.0,True
places/ChIJ6UlwZlNvVo8RP7jeQRiQYUs,Telesecundaria. 31ETV0056Q-Secundaria Leandro Valle,20.868944,-89.5814882,,"educational_institution,point_of_interest,establishment",False,,0.0,9999.0,True
places/ChIJvXvbCNtvVo8RY6wZQJzyszk,Muy Muy Lejano,20.871761,-89.5762579,,"apartment_building,service,point_of_interest,establishment",False,,0.0,9999.0,True
places/ChIJnxxD8_9vVo8RVBOCpQDM6T0,Casa vivero montes,20.870508299999997,-89.59425069999999,,"water_park,amusement_park,lodging,point_of_interest,establishment",False,,0.0,9999.0,True
places/ChIJCcdYk-dvVo8Rh0WuAEOMCL4,Tendejón Galdino,20.874941399999997,-89.59511429999999,,"convenience_store,food_store,store,food,point_of_interest,establishment",False,,0.0,9999.0,True
places/ChIJCxguBlxvVo8R9kwTQ-WpAzI,Maxima Proyectos,20.8731363,-89.5917188,,"service,point_of_interest,establishment",False,,0.0,9999.0,True
places/ChIJzYq6ayhvVo8RPgmB60pfals,Quinta Palomino,20.8672225,-89.57782499999999,,"condominium_complex,service,point_of_interest,establishment",False,,0.0,9999.0,True
places/ChIJnT1iNKltVo8Rs8OaqEo_eqQ,Mercado Libre,20.8994626,-89.68289949999999,,"storage,point_of_interest,establishment",False,,0.0,9999.0,True
places/ChIJJx5I4W1zVo8RVJZ4pNX36TE,Leoni Mérida II,20.902188499999998,-89.6783773,,"manufacturer,point_of_interest,establishment",False,,0.0,9999.0,True
places/ChIJt38QpmZtVo8Rn3jzkHHRt1k,Mercado Libre Panorama II,20.9010324,-89.68261590000002,,"storage,point_of_interest,establishment",False,,0.0,9999.0,True
places/ChIJr0RSz3RzVo8R2mYC4e-bhfU,Palomeque Residencial de MG Promotora de Vivienda,20.887686499999997,-89.6714509,,"point_of_interest,service,establishment",False,,0.0,9999.0,True
places/ChIJBasItBJ0Vo8RC4Jo0HlYuZ8,Hacienda San Pedro Palomeque,20.8901155,-89.6653718,,"event_venue,point_of_interest,establishment",False,,0.0,9999.0,True
places/ChIJET9x-VBtVo8RAGjyeU6APkQ,Estación de servicio G500 / MayaBlue,20.894070799999998,-89.69295389999999,,"gas_station,point_of_interest,service,establishment",False,ESTACION SANTA CRUZ,40.0,27.4,True
places/ChIJgaPxEABtVo8RbJ8Rkd6wDbk,Gran Santa Cruz,20.8911239,-89.67510209999999,,"housing_complex,point_of_interest,service,establishment",False,,0.0,9999.0,True
places/ChIJwT07eWRtVo8RpPQd5fI69EE,Planta Empacadora Bachoco,20.895792,-89.67549559999999,,"point_of_interest,establishment",False,,0.0,9999.0,True
places/ChIJr9ZDe3ltVo8RR0rwnyCWbP8,Tuch Motel,20.8947572,-89.6672891,,"hotel,lodging,point_of_interest,establishment",False,BODEGA DIMMMSA PERIFERICO,22.857142857142854,34.6,True
places/ChIJMwj6FGNtVo8R5fe1_sSJ6Qc,Refacciones Para Camiones Mérida,20.8985748,-89.67362969999999,,"auto_parts_store,car_repair,point_of_interest,store,service,establishment",False,,0.0,9999.0,True
places/ChIJRWoJwnttVo8RXO7guwTrN-g,7-Eleven,20.8952174,-89.6683733,,"convenience_store,point_of_interest,food_store,food,store,establishment",False,7 ELEVEN SUC 2160 PERISUR,42.42424242424242,18.6,True
places/ChIJQXHN2nttVo8RWT_gfKLMKBc,Gasolinera Gulf,20.8949876,-89.6680641,,"gas_station,point_of_interest,service,establishment",False,7 ELEVEN SUC 2160 PERISUR,30.000000000000004,48.3,True
places/ChIJ663p6XRtVo8RkH9egh8Twmg,OXXO Gas Santa Cruz MID,20.894164999999997,-89.6934661,,"convenience_store,travel_agency,pet_care,cell_phone_store,gift_shop,shipping_service,finance,home_goods_store,transportation_service,point_of_interest,food_store,food,store,service,establishment",False,,0.0,9999.0,True
places/ChIJBT5b-5ltVo8R8hwsYPGIZsE,The Italian Coffee G500,20.894267499999998,-89.6935012,,"cafeteria,point_of_interest,establishment",False,,0.0,9999.0,True
places/ChIJ3ZQ9zahtVo8RlBZqzich8EU,Oficina de ventas Gran Santa Cruz,20.8939594,-89.67610959999999,,"real_estate_agency,point_of_interest,service,establishment",False,,0.0,9999.0,True
places/ChIJObBg8XptVo8RaYPTKE8HfIY,Parque Santa Cruz Palomeque,20.892926499999998,-89.67054999999999,,"park,point_of_interest,establishment",False,ESCUELA PRIMARIA MAESTRA AMELGA MARIA MOGUEL AGUILAR,37.9746835443038,33.8,True
places/ChIJVzYTde1tVo8RkCt1BK8CTAA,MRT Maquinaria y Refacciones Mérida,20.8947344,-89.6917648,,"building_materials_store,truck_dealer,supplier,point_of_interest,food,store,establishment",False,,0.0,9999.0,True
places/ChIJuTbpb3ltVo8RH5fIUYSEqCA,Dimmmsa BODEGA PERIFERICO,20.8945336,-89.66682949999999,,"winery,farm,manufacturer,point_of_interest,food,service,establishment",False,,0.0,9999.0,True
places/ChIJgXn-HI9tVo8RouJvqNMae38,86th Avenue Bridge,20.8943048,-89.6510402,,"bridge,transportation_service,point_of_interest,establishment",False,TIENDA LOS GABRIELES,31.57894736842105,35.1,True
places/ChIJhRyp9_NtVo8RG1Ydu-LlHIM,TRANSPORTES CASTORES MÉRIDA CEDIS,20.8924365,-89.655791,,"point_of_interest,establishment",False,,0.0,9999.0,True
places/ChIJRShdUddtVo8RxXz6-Hi5wHQ,San Marcos Sustentable Calle Ibis,20.9035218,-89.6669424,,"service,point_of_interest,establishment",False,ESTETICA ZOE SALON,35.29411764705882,39.9,True
places/ChIJC0nMY4ZtVo8R1LbmXlqXtm8,UADY Unidad Académica Bachillerato con Interacción Comunitaria,20.898006,-89.65556459999999,,"university,school,educational_institution,point_of_interest,establishment",False,,0.0,9999.0,True
places/ChIJId3yYIJtVo8RuKq_LbCSqCM,Motel A Ponte,20.8931963,-89.6616683,,"hotel,motel,lodging,point_of_interest,establishment",False,MOTEL HOTEL SUITES APONTTE,51.28205128205128,48.8,True
places/ChIJq9kr5H5tVo8RnuR_TssgKcM,Lineal Fracc San Marcos sustentable Park,20.898569,-89.66558599999999,,"park,point_of_interest,establishment",False,VENTA DE ROPA GARAGE DE MAMAS,43.47826086956522,46.3,True
places/ChIJsUQHqYVtVo8Rtw6zPe1qOsY,El Bosque Motel,20.893453599999997,-89.6551324,,"hotel,lodging,point_of_interest,establishment",False,,0.0,9999.0,True
places/ChIJN534HQBtVo8RSJBeMqUFkdY,Parque de deportes extremos Henry Martin,20.9003136,-89.6568241,,"adventure_sports_center,sports_complex,sports_activity_location,point_of_interest,establishment",False,,0.0,9999.0,True
places/ChIJ6az-GylyVo8RxWjxiPOULSE,Hospital de la Amistad Corea-México,20.9022088,-89.6397142,,"general_hospital,hospital,service,point_of_interest,health,establishment",False,,0.0,9999.0,True
places/ChIJU_nteC5tVo8RnzRyzXz2JaI,Hospital O'Horan Sur,20.901849,-89.641909,,"hospital,service,point_of_interest,health,establishment",False,VENTA DE COMIDA DOÑA TERESITA,32.6530612244898,29.7,True
places/ChIJ8XFBTQBtVo8RLt7gWr8ZYk4,Little Caesars Avenida 86 Sur,20.901324000000002,-89.6497152,,"meal_takeaway,restaurant,food,point_of_interest,establishment",False,LOCAL DE FIESTAS VILLA ANA CECILIA,44.44444444444444,36.8,True
places/ChIJM7Q2ooltVo8RaYHUxs-vdfg,Parque La Arbolada,20.9004022,-89.65028819999999,,"park,point_of_interest,establishment",False,CHATARRERA LA ESPERANZA,34.14634146341463,43.5,True
places/ChIJSXz5m4NtVo8RkusXythfjCI,Swimming School AQUAPOLIS,20.894092699999998,-89.6589632,,"sports_school,sports_activity_location,school,educational_institution,point_of_interest,establishment",False,ESCUELA DE NATACION ACUARIUM ACUAPOLIS,47.61904761904761,42.6,True
places/ChIJ4ZLS5o5tVo8R_F-raTyibtU,Avenida 86 - Circuito Interior,20.8950312,-89.6507525,,"point_of_interest,establishment",False,,0.0,9999.0,True
places/ChIJ4_j1to5tVo8RQBjYcPA_oXY,Selnav,20.8961725,-89.6497266,,"gas_station,service,point_of_interest,establishment",False,COMBUSTIBLES DE YUCATAN SUCURSAL PERIFERICO SUR,15.094339622641506,37.2,True
places/ChIJRUZDNgV1Vo8RxQ0sTtvn1EM,Revolta Transportes | Fletes en Mérida,20.8973824,-89.64519519999999,,"moving_company,shipping_service,transportation_service,service,point_of_interest,establishment",False,,0.0,9999.0,True
places/ChIJVcCh9M9tVo8RjfcjRT1ysKM,Patio castores merida,20.8925951,-89.6552111,,"point_of_interest,establishment",False,ACERO INOXIDABLE METALES DEL PUERTO CHAAC,38.70967741935484,44.7,True
places/ChIJIV2K4INtVo8R2BuDEtDfoMw,Metropolitano del Sur Yu'um Tsil Ecological Park,20.8964858,-89.6592211,,"tourist_attraction,park,point_of_interest,establishment",False,CARNICERIA SIN NOMBRE,37.68115942028986,12.9,True
places/ChIJjxdez_dtVo8Rrx5ifktYQY0,Pemex,20.901602999999998,-89.63601799999999,,"gas_station,service,point_of_interest,establishment",False,GASOLINERA ESTACION 11493,13.33333333333333,44.6,True
places/ChIJCxZ8DI1tVo8RdawM6hTOw4Y,Comedor zarigüeyas ( Asociación MUSUM),20.8963204,-89.6421276,,"service,food,point_of_interest,establishment",False,COMEDOR ZARIGUEYAS,60.71428571428572,16.1,True
places/ChIJofzE_vVtVo8RoHOEYtPpHAw,Korea-Mexico Friendship Hospital Emergency,20.902357199999997,-89.6395333,,"service,point_of_interest,health,establishment",False,HOSPITAL DE LA AMISTAD COREA MEXICO,57.14285714285714,44.2,True
places/ChIJAWcjLQZuVo8RKd6RBuWYX-4,Bodegas JL Ferráez,20.8908834,-89.6225302,,"winery,farm,manufacturer,food,point_of_interest,service,establishment",False,ESTANQUILLO LA FLOR DEL MAYAB,34.04255319148937,46.3,True
places/ChIJhzbI8g9vVo8RrblbDhSioDo,Gas Imperial Xmatkuil,20.8880764,-89.6241824,,"supplier,point_of_interest,service,establishment",False,TAQUERIA,34.48275862068966,17.7,True
places/ChIJmyDHNS9tVo8RmkZwIzhvSrk,Villa María Victoria,20.893432999999998,-89.62534939999999,,"point_of_interest,service,establishment",False,SALON DE FIESTAS VILLA MARIA VICTORIA,66.66666666666667,4.3,True
places/ChIJCbkrFwByVo8RWvxC1nq88zo,Nva. San Jose Tecoh Park,20.9038357,-89.62631600000002,,"park,point_of_interest,establishment",False,,0.0,9999.0,True
places/ChIJmzUU-wFuVo8RcX4xrfHYqY4,Plan De Ayala Sur II Park,20.9020758,-89.62096129999999,,"park,point_of_interest,establishment",False,,0.0,9999.0,True
places/ChIJe6zXhEh3Vo8R8tZQPNjrau8,PERMANEX,20.8912043,-89.623893,,"building_materials_store,store,point_of_interest,establishment",False,CEDIS MERIDA,30.000000000000004,41.5,True
places/ChIJ9zjpu1BtVo8RH5eEIrten4o,Dzununcan,20.8965446,-89.6411188,,"housing_complex,point_of_interest,service,establishment",False,CARNICERIA LA VALENTINA,25.0,26.9,True
places/ChIJwR5PZ-JtVo8R7SxNsUv4r8g,Palapa Solci,20.8872607,-89.62629179999999,,"event_venue,point_of_interest,service,establishment",False,,0.0,9999.0,True
places/ChIJz1gKbu1tVo8R2oMA_F2wuNs,Casa del alfarero,20.8897104,-89.6422424,,"church,place_of_worship,association_or_organization,point_of_interest,establishment",False,,0.0,9999.0,True
places/ChIJWfD73lptVo8RCavc5cPCzwo,MAPSA Sur,20.900752999999998,-89.6304931,,"point_of_interest,establishment",False,,0.0,9999.0,True
places/ChIJiSzSSAZuVo8RbhPW_wMz5xg,PRESUR,20.8924997,-89.6223267,,"building_materials_store,store,point_of_interest,establishment",False,PREFABRICADOS PRESUR,46.15384615384615,6.8,True
places/ChIJGa7ekKdvVo8RMYsy1Sj08Ow,Los Negritos de Chilam Balam,20.885906199999997,-89.6223373,,"association_or_organization,event_venue,point_of_interest,service,establishment",False,CARPINTERIA SIN NOMBRE,31.999999999999996,40.0,True
places/ChIJC7hV9Q9uVo8RjXKoHmtDhzg,Casa Chilam Balam,20.8906205,-89.6169108,,"event_venue,point_of_interest,establishment",False,,0.0,9999.0,True
places/ChIJpQw9DKNtVo8RSIXuoaIbyTI,KU'UK,20.8912271,-89.64029219999999,,"point_of_interest,establishment",False,,0.0,9999.0,True
places/ChIJ____P0lyVo8RwwGe2YOOzp8,Baquedano Refacciones para Camiones // Comercial LB Peninsular,20.9018083,-89.61942599999999,,"auto_parts_store,car_repair,store,point_of_interest,service,establishment",False,RESTAURANTES CON SERVICIO DE PREPARACIÓN DE ANTOJITOS SIN NOMBRE,44.44444444444444,41.9,True
places/ChIJQcGaDzpuVo8R6M30xDCove4,Hacienda San Antonio Tahdzibichén,20.885427999999997,-89.5967944,,"event_venue,point_of_interest,establishment",False,,0.0,9999.0,True
places/ChIJZ8EtihdvVo8R_iiJ0ob89ic,Barbacoa el Mayor,20.8849628,-89.5975756,,"restaurant,point_of_interest,food,establishment",False,SIX TAHZIBICHEN,25.0,24.2,True
places/ChIJZ_E0bXlvVo8Rm3EAVGR_fP8,Quinta San Ignacio De Loyola,20.897585199999998,-89.5990872,,"event_venue,point_of_interest,establishment",False,,0.0,9999.0,True
places/ChIJH9Y_7txvVo8RcURfIGNtvnQ,Quinta el terrenito,20.8976555,-89.59725329999999,,"concert_hall,auditorium,live_music_venue,event_venue,point_of_interest,establishment",False,,0.0,9999.0,True
places/ChIJ_XNBasVvVo8RB7NonQYTvsw,Decomarmol,20.895196499999997,-89.59901119999999,,"manufacturer,point_of_interest,establishment",False,,0.0,9999.0,True
places/ChIJwdHtcaFxVo8Rssz7pEcxaVM,Quinta “Los Aragón”,20.9014365,-89.59986789999999,,"point_of_interest,establishment",False,,0.0,9999.0,True
places/ChIJOVls6iVvVo8RDEzDC5q3z40,"""Comisaría Tahdzibichen"" Park",20.8871595,-89.59785099999999,,"park,point_of_interest,establishment",False,,0.0,9999.0,True
places/ChIJHeScZgBvVo8Rhcw9zSi7TY0,"VILLA ""MI QUERIDO VIEJO“",20.9022295,-89.61225790000002,,"point_of_interest,service,establishment",False,,0.0,9999.0,True
places/ChIJRx2yeoFxVo8R5zJhH4qjcyY,Dipacu,20.8908803,-89.62281349999999,,"manufacturer,wholesaler,point_of_interest,establishment",False,BODEGA SIFATEC,40.0,38.9,True
places/ChIJ9UVRxbRvVo8RIdeT80gPFOg,Villas el Secreto Yucatán,20.9014165,-89.6067703,,"point_of_interest,service,establishment",False,,0.0,9999.0,True
places/ChIJ1RF0PQBvVo8RuzrhbWHGtz8,Rancho de Flori,20.8887937,-89.60195449999999,,"playground,point_of_interest,establishment",False,,0.0,9999.0,True
places/ChIJtcr0rLFxVo8R1Gl_VObeOag,TROBBU - HACIENDA DZOYOLÁ,20.9032211,-89.58571219999999,,"finance,point_of_interest,service,establishment",False,,0.0,9999.0,True
places/ChIJGadkC3lvVo8Rt1qTg_gRba0,Calle 37 I Jardines de Tahdzibichen,20.8944075,-89.5982966,,"association_or_organization,point_of_interest,service,establishment",False,,0.0,9999.0,True
places/ChIJL6HMJLNvVo8R7QRffs_QXpw,Dzoyola,20.9017251,-89.58148899999999,,"housing_complex,point_of_interest,service,establishment",False,,0.0,9999.0,True
places/ChIJXYKXXNZvVo8RZWg1w0TFzC0,Tienda Alex,20.9001849,-89.5813246,,"grocery_store,food_store,store,food,point_of_interest,establishment",False,,0.0,9999.0,True
places/ChIJ2XYpUH5vVo8Rxj9CO9hpl1Q,El Tonal Oaxaqueño,20.887131699999998,-89.6017949,,"mexican_restaurant,restaurant,food,point_of_interest,establishment",False,,0.0,9999.0,True
places/ChIJpUBQJARvVo8RQwxezrZNCa8,Taller de tornería carcaño,20.893834,-89.5985692,,"manufacturer,point_of_interest,establishment",False,,0.0,9999.0,True
places/ChIJtWzuqYJxVo8RTHNBk5i2Q6E,Ecoexpeditionsmexico,20.8994618,-89.598483,,"tour_agency,travel_agency,point_of_interest,service,establishment",False,,0.0,9999.0,True
places/ChIJGcHLX1ENVo8RKOUx_TjBHbs,CEDIS OXXO Mérida,20.9100335,-89.7055025,,"storage,point_of_interest,establishment",False,SANTANDER,15.384615384615385,25.3,True
places/ChIJhaQRLGRzVo8RgGbNpcemcL8,"Bodega Aurrera, Piedra de Agua",20.9064488,-89.6883246,,"supermarket,grocery_store,food_store,store,food,point_of_interest,establishment",False,,0.0,9999.0,True
places/ChIJRw1FD1sNVo8Rbh5GeKazEd8,Estafeta,20.9092979,-89.7150344,,"courier_service,post_office,shipping_service,finance,government_office,service,association_or_organization,point_of_interest,establishment",False,,0.0,9999.0,True
places/ChIJ9UKxHVANVo8Ral4UWHJywh0,Cookies Fabrica Dondé,20.9155862,-89.7087126,,"manufacturer,point_of_interest,establishment",False,,0.0,9999.0,True
places/ChIJxfxkPKxyVo8RHX1zNwDaeKQ,Truper Herramientas Itzincab,20.9130047,-89.702691,,"building_materials_store,manufacturer,store,point_of_interest,establishment",False,,0.0,9999.0,True
places/ChIJYQuGg1ENVo8RpyJl0YZNR7Q,Cedis Lala,20.911681899999998,-89.70637769999999,,"storage,point_of_interest,establishment",False,,0.0,9999.0,True
places/ChIJdzbwfqVzVo8REW69X2sWaQQ,Amazon MID1,20.920541699999998,-89.7018896,,"association_or_organization,point_of_interest,establishment",False,,0.0,9999.0,True
places/ChIJuVsGT92qV48RSxTXa6co2A4,Acerofertas Cedis Umán,20.9049072,-89.7200192,,"manufacturer,point_of_interest,establishment",False,,0.0,9999.0,True
places/ChIJG6sjzlINVo8RivRwwrwLwbs,DHL - PepsiCo,20.9121417,-89.70114889999999,,"department_store,store,point_of_interest,establishment",False,BANAMEX,9.999999999999998,49.0,True
places/ChIJd-wtfF4NVo8RsrFuIpyg4_8,Air Temp Mexico,20.9079574,-89.7161747,,"general_contractor,service,point_of_interest,establishment",False,HSBC MEXICO,53.84615384615385,45.9,True
places/ChIJr8OuFNRzVo8Rf5cGOgILhS4,Maya Gas - Umán,20.9192903,-89.6978517,,"supplier,service,point_of_interest,establishment",False,,0.0,9999.0,True
places/ChIJ39ktCLASVo8RMUl-ZHuUytg,Hacienda Tanil,20.8897475,-89.709965,,"wedding_venue,event_venue,service,point_of_interest,establishment",False,,0.0,9999.0,True
places/ChIJiTSNDU8NVo8R3b4Hp6QTgFs,Colegio Libre de Estudios Universitarios.,20.9178081,-89.70159629999999,,"university,school,educational_institution,point_of_interest,establishment",False,CAJERO AUTOMÁTICO BBVA BANCOMER,33.333333333333336,41.1,True
places/ChIJyZg1W7ASVo8R2fdWW5h8H0U,Hacienda Sayab Ha,20.8885669,-89.70899109999999,,"lodging,point_of_interest,establishment",False,,0.0,9999.0,True
places/ChIJCx7ZeRwNVo8RpkSMkuAgisg,AMAZON MEXICO CEDIS UMAN YUCATAN MEX.,20.920576699999998,-89.701844,,"storage,point_of_interest,establishment",False,,0.0,9999.0,True
places/ChIJgc2H1U8NVo8RGramsefxuZg,HERDEZ Merida,20.9146608,-89.7069853,,"grocery_store,food_store,store,food,point_of_interest,establishment",False,,0.0,9999.0,True
places/ChIJiQ7gVgtzVo8RTwx_xM5AAj8,OXXO GAS,20.916995,-89.70300499999999,,"gas_station,general_store,public_bathroom,food_store,store,service,food,point_of_interest,establishment",False,CAJERO AUTOMÁTICO HSBC MEXICO,27.027027027027028,14.2,True
places/ChIJIQt0bU4NVo8RulesYEKdckw,Autotab Vehículos Comerciales Mérida,20.91657,-89.70524999999999,,"truck_dealer,car_dealer,store,car_repair,service,point_of_interest,establishment",False,AUTOTAB MERCEDES BENZ,56.14035087719298,19.9,True
places/ChIJU2Q997xyVo8RQhKYBOPDolY,MCP CEDIS Periférico,20.9172701,-89.68474189999999,,"building_materials_store,store,point_of_interest,establishment",False,,0.0,9999.0,True
places/ChIJE54rz2ZxVo8R0xCHiGwBJhc,Periférico Sur,20.9044571,-89.6772153,,"gas_station,service,point_of_interest,establishment",False,ESTACION PERIFERICO SUR,70.27027027027026,35.5,True
places/ChIJ0bd3jLNyVo8R38i7Wp3kLmQ,Forrajes y Granos Agropecuarios de Yucatan,20.9076707,-89.677775,,"pharmacy,veterinary_care,health,store,point_of_interest,establishment",False,,0.0,9999.0,True
places/ChIJtxikP7BzVo8RMX_lS7iYN28,"TELEBODEGA Mérida, Periférico",20.916576799999998,-89.6843438,,"home_goods_store,store,point_of_interest,establishment",False,,0.0,9999.0,True
places/ChIJ597dzEhzVo8R6ZSm2_P0caA,Gasolinera Pensión Mérida,20.904078,-89.67804,,"gas_station,service,point_of_interest,establishment",False,,0.0,9999.0,True
places/ChIJwdSq13NxVo8Ry3GWOmSRE5o,Arca de Noé A.C.,20.9127211,-89.6690843,,"community_center,service,health,event_venue,point_of_interest,establishment",False,,0.0,9999.0,True
places/ChIJ58hHA3RyVo8RniRIi2mWcEw,Santos lugo south,20.907932799999998,-89.6485883,,"plaza,shopping_mall,point_of_interest,establishment",False,CASA SANTOS LUGOS EMILIANO ZAPATA SUR,55.55555555555556,16.9,True
places/ChIJBdMpDgBzVo8RqNsOsjiDt6Q,Bodega De Remates Motos Avenida 86,20.905375,-89.64919880000001,,"auto_parts_store,car_repair,service,point_of_interest,store,establishment",False,COMIDA CHINA XING LONG EXPRESS,34.375,39.1,True
places/ChIJGeCUkQ9zVo8RHVuCw9qsPNA,CEMADE Centro de Desarrollo Marista,20.9183137,-89.65432799999999,,"educational_institution,point_of_interest,establishment",False,,0.0,9999.0,True
places/ChIJT6UOqxtyVo8RbEKJdLRvJx8,Juzgados Civiles del Primer Departamento,20.917566,-89.6322478,,"local_government_office,government_office,point_of_interest,establishment",False,JUZGADOS CIVILES Y PENALES,57.57575757575757,31.6,True
places/ChIJM623UgBzVo8RiVuNxkqEfus,Banco del Bienestar,20.9141922,-89.629774,,"bank,finance,point_of_interest,establishment",False,,0.0,9999.0,True
places/ChIJm5-A1w9yVo8RXEpoj-V5Eds,Polifuncional San Jose Tecoh,20.9142252,-89.6359411,,"sports_complex,sports_activity_location,point_of_interest,establishment",False,,0.0,9999.0,True
places/ChIJsdLUvWdzVo8RntBLobC_xL8,Mi Bodega Aurrera Calle 86,20.920814699999998,-89.6450469,,"grocery_store,food_store,store,food,point_of_interest,establishment",False,,0.0,9999.0,True
places/ChIJXQkPFhtyVo8RkA18UL6sgCo,CEJOM,20.917068399999998,-89.6321334,,"corporate_office,point_of_interest,establishment",False,,0.0,9999.0,True
places/ChIJz1orlxpyVo8R9O4L9FY4eg4,Oral Justice Center Merida,20.916543,-89.6316971,,"local_government_office,government_office,point_of_interest,establishment",False,,0.0,9999.0,True
places/ChIJ-aE_D7NwVo8R9LIt0mDTkig,Banco de Alimentos de Mexico (BAMX MERIDA),20.904081299999998,-89.63902279999999,,"service,association_or_organization,food,point_of_interest,establishment",False,,0.0,9999.0,True
places/ChIJV_cQgB1zVo8RDazeCKqNeXI,Centro De Conciliación Laboral Del Estado De Yucatán (CECOLEY),20.9171853,-89.6313414,,"local_government_office,government_office,point_of_interest,establishment",False,LONCHERIA LOS 2 CHULINES,30.23255813953488,41.6,True
places/ChIJ5YZWgvpxVo8R9ZRQVTZEcQ4,La Gas Periférico 50,20.9143497,-89.6174939,,"gas_station,service,point_of_interest,establishment",False,FOMENTO GASOLINERO PERIFERICO 50,65.38461538461539,44.8,True
places/ChIJL9y47xxyVo8RQcSBc6x7eBg,Municipal Sports Complex Fernando Valenzuela,20.9157466,-89.6269683,,"sports_complex,sports_activity_location,point_of_interest,establishment",False,PAPELERIA 12 DE DICIEMBRE,34.78260869565217,29.7,True
places/ChIJoTZORhxyVo8RS6JRPCkGwxI,Mercado San Roque,20.9188519,-89.62824810000001,,"market,point_of_interest,establishment",False,BAÑOS PUBLICOS DEL MERCADO DE SAN ROQUE,60.71428571428572,42.5,True
places/ChIJ____vx1yVo8R91LKquxtR_A,Cereso Mérida,20.9176426,-89.63137859999999,,"service,point_of_interest,establishment",False,DIRECCION DEL CENTRO DE REINSERCION SOCIAL,32.72727272727273,43.1,True
places/ChIJRzGVAvRxVo8RqFawXiqoCG8,La Mariskeria Restaurante-Bar,20.9205287,-89.62109439999999,,"seafood_restaurant,bar_and_grill,bar,restaurant,point_of_interest,food,establishment",False,LA MARISKERIA,61.904761904761905,16.0,True
places/ChIJ5daa9slxVo8RGLxi-3TLBys,Refaccionaria Ancona Autopartes 50 Sur - Mérida,20.9174094,-89.62082020000001,,"auto_parts_store,car_repair,store,service,point_of_interest,establishment",False,REFACCIONARIA PARA MOOS DD MOTOCICLETAS,55.81395348837209,32.7,True
places/ChIJ_6EvCwBxVo8RhLvNCOl3YtY,Vaqueiros Ferreteros 50 sur,20.918552599999998,-89.62076259999999,,"hardware_store,building_materials_store,store,point_of_interest,establishment",False,SALA DE FIESTAS ERIKA GUADALUPE,41.379310344827594,47.0,True
places/ChIJge5fMwBxVo8RfwYOmgIFqVs,Villa bonita del sur,20.9121806,-89.6090674,,"housing_complex,service,point_of_interest,establishment",False,TIENDA LA INFANTITA 2,43.90243902439024,24.5,True
places/ChIJdxFn5tFxVo8RD5LtJBrISJQ,Fraccionamiento Cielo Alto Residencial,20.9130549,-89.5919366,,"general_contractor,service,point_of_interest,establishment",False,ESCUELA PUBLICA JARDIN DE NIÑOS MARIA DOLORES RAMKIREZ REGIL,40.816326530612244,49.3,True
places/ChIJTbVeZ3NxVo8RGRBsa9hkW4o,G500 Leona Vicario,20.9219568,-89.60499039999999,,"gas_station,service,point_of_interest,establishment",False,OXXO SUC 5081G SEDENA SUR MID,38.297872340425535,37.2,True
places/ChIJBz1g2KJxVo8R4-hdWhAXUxw,Rancho El Imperio XR,20.9083322,-89.60401519999999,,"point_of_interest,establishment",False,,0.0,9999.0,True
places/ChIJp2OmjdpxVo8RkS-IKgTtxrM,Finca El Santuario,20.912045799999998,-89.597983,,"event_venue,service,point_of_interest,establishment",False,COCINA ECONOMICA DOÑA LUCY,31.818181818181824,47.8,True
places/ChIJWSStK_pxVo8R8eKq8fW6jbU,Xmatkuil - Bajo Puente Circuito Interior,20.9116118,-89.6205634,,"point_of_interest,establishment",False,TIENDA DE ROPA,33.333333333333336,36.0,True
places/ChIJm4AbluZxVo8RB2CV9Dx2khc,OXXO Leona Vicario,20.907689299999998,-89.60093619999999,,"convenience_store,gift_shop,cell_phone_store,shipping_service,travel_agency,home_goods_store,finance,transportation_service,food_store,service,food,pet_care,point_of_interest,store,establishment",False,TORTILLERIA LA LEONA,52.63157894736843,34.8,True
places/ChIJ0z5iKwBxVo8RtiwhBF3uWMc,50-Roll Sushi,20.9130085,-89.6209774,,"japanese_restaurant,restaurant,food,point_of_interest,establishment",False,SUSHIROLL 50,64.0,5.0,True
places/ChIJDzkHFLZxVo8RU5_fHSI0vxc,Quinta Franco,20.9054693,-89.59911489999999,,"event_venue,lodging,point_of_interest,establishment",False,,0.0,9999.0,True
places/ChIJnztolS1xVo8RLznpwsofn-4,Gas Imperial de Yucatán,20.9146426,-89.602401,,"supplier,service,point_of_interest,establishment",False,GAS IMPERIAL LEONA VICARIO,61.224489795918366,6.2,True
places/ChIJQ4kaaDFxVo8RA7ZGq_BavjQ,BARBACOA DE ACTOPAN HIDALGO,20.9197108,-89.60846649999999,,"barbecue_restaurant,restaurant,food,point_of_interest,establishment",False,,0.0,9999.0,True
places/ChIJ98VGijxxVo8R5lfrB_U3MNY,Quinta la Ceiba Event Planner,20.9113591,-89.59998080000001,,"garden,event_venue,point_of_interest,establishment",False,ESCUELA PRIMARIA LEANDRO VALLE,40.67796610169492,42.5,True
places/ChIJ09hTIrBxVo8RutAf-npGFYs,Oxxo mulchechén cerritos,20.9142296,-89.5808447,,"convenience_store,food_store,store,point_of_interest,food,establishment",False,OXXO SUC 502W2 PASEOS DE MULCHECHEN MID,53.968253968253975,14.0,True
places/ChIJgxJT6DNwVo8Rbel1KnAIMgs,Quinta Jazmín,20.919005,-89.5834898,,"event_venue,service,point_of_interest,establishment",False,SALA DE FIESTAS JAZMIN,40.0,15.1,True
places/ChIJscy2Rd9xVo8RyR-XFGk1I1I,Jardín de eventos el colibrí,20.920489,-89.5883781,,"banquet_hall,event_venue,service,point_of_interest,establishment",False,PUESTO DE COCHINITA,42.553191489361694,27.9,True
places/ChIJHQa5zZNxVo8RFGWzQ4AH6Rk,FRACCIONAMIENTO SANTA ANA,20.9057024,-89.5704811,,"association_or_organization,service,point_of_interest,establishment",False,,0.0,9999.0,True
places/ChIJe-XdZABxVo8RfzWt03tlIhQ,SANTA ANA,20.908932,-89.5700653,,"tourist_attraction,point_of_interest,establishment",False,YUC SIX SANTA ANA,69.23076923076923,28.8,True
places/ChIJgcNF1jBwVo8RaFyLaeveAcs,SANTA ISABEL Park,20.919841599999998,-89.5803174,,"park,tourist_attraction,point_of_interest,establishment",False,SIX LA ROSITA,40.0,44.7,True
places/ChIJb4EXQ2NxVo8R4I9qUSqDkfY,Quinta Maria Lourdes,20.9089559,-89.58237749999999,,"event_venue,service,point_of_interest,establishment",False,,0.0,9999.0,True
places/ChIJwzQBW8txVo8RSYqo2wFse-8,Prados Mulchechen,20.916693,-89.5877052,,"service,point_of_interest,establishment",False,,0.0,9999.0,True
places/ChIJl73uMmkNVo8R6Mw17sb2Te0,Gran Calzada Ciudad Viva,20.9214946,-89.7152765,,"service,point_of_interest,establishment",False,YUC SIX CALZADA XIMENA,52.17391304347826,22.9,True
places/ChIJK5j_FcANVo8REfmMQ7hjZVY,Tere Cazola - Planta Procesadora,20.9302344,-89.7087976,,"corporate_office,point_of_interest,establishment",False,,0.0,9999.0,True
places/ChIJAQAAwFVxVo8RoW0Cgcp6_jQ,Industry Marbol mueblera,20.9285166,-89.7099586,,"furniture_store,home_improvement_store,home_goods_store,store,point_of_interest,manufacturer,establishment",False,,0.0,9999.0,True
places/ChIJ7ZnlzytzVo8RA8fL0zXWSgk,Miraverde Privada Habitacional,20.9207198,-89.7152617,,"service,point_of_interest,establishment",False,TIENDA DE ABARROTES EL TREBOL,37.28813559322034,44.6,True
places/ChIJpYzEEAANVo8RXdQvBw520iY,Gran calzada,20.918540699999998,-89.7152533,,"housing_complex,service,point_of_interest,establishment",False,ASADERO A LA BRASA,40.0,44.0,True
places/ChIJYdrUTl4NVo8R7d6VGiTcOzs,Bodegas Yucatan Diamante,20.9269399,-89.7124571,,"winery,farm,food,service,point_of_interest,manufacturer,establishment",False,,0.0,9999.0,True
places/ChIJWVXsCAANVo8RokIFbfSbzL8,Gran Calzada Etapa 3,20.9189526,-89.7172866,,"housing_complex,service,point_of_interest,establishment",False,TIENDA DE ABARROTES 9/3/4,35.55555555555555,24.8,True
places/ChIJeemQ390NVo8RcEEw22-qcyQ,Booster Energía Mayakan (ENGIE),20.914782499999998,-89.71801169999999,,"corporate_office,point_of_interest,establishment",False,,0.0,9999.0,True
places/ChIJcaHxx2QNVo8Rr2AnPjWfeJg,Privada Miraverde,20.9207724,-89.7149258,,"housing_complex,service,point_of_interest,establishment",False,,0.0,9999.0,True
places/ChIJvwtVaWcNVo8RTyCVstEL5Mg,Paseos de Merida Park,20.9334344,-89.7077519,,"park,point_of_interest,establishment",False,,0.0,9999.0,True
places/ChIJKcxsr3l1Vo8RW45OOcBwt2Y,Baum Industria Carpintera,20.9269005,-89.7117535,,"point_of_interest,manufacturer,establishment",False,,0.0,9999.0,True
places/ChIJjddsCQANVo8RSsU7MQjYxZI,Gran Calzada Etapa 4,20.9168712,-89.71942519999999,,"service,point_of_interest,establishment",False,,0.0,9999.0,True
places/ChIJW4G8yUoNVo8R__WMd9hRKY4,Fraccionamiento Providencia,20.9258173,-89.7090111,,"service,point_of_interest,establishment",False,,0.0,9999.0,True
places/ChIJj_yJPc5yVo8Rcsk45zBuB1k,Diamante Eros,20.937279699999998,-89.6948714,,"hotel,lodging,point_of_interest,establishment",False,,0.0,9999.0,True
places/ChIJAQAAwO5yVo8ReE1p3whKovk,PCC Airfoils,20.932489999999998,-89.69161749999999,,"manufacturer,point_of_interest,establishment",False,,0.0,9999.0,True
places/ChIJ8a4rEblyVo8RNoGFCm_Czyk,Direccion De Transporte,20.921909199999998,-89.6876424,,"local_government_office,government_office,association_or_organization,point_of_interest,establishment",False,,0.0,9999.0,True
places/ChIJVwM0KclyVo8RE300MpS9qGk,MERIDA BUSINESS PARK,20.9326039,-89.6940438,,"winery,farm,manufacturer,service,point_of_interest,food,establishment",False,TAMEX MERIDA B,58.82352941176471,48.9,True
places/ChIJuaZxp75yVo8RL6g09Ah_Xkw,CFE CENTRAL TERMOELÉCTRICA MERIDA II POZO DE ABASTECIMIENTO NO.5,20.9261965,-89.6870605,,"manufacturer,point_of_interest,establishment",False,,0.0,9999.0,True
places/ChIJJx3x9Cl3Vo8RCCirt_3UljE,Proteínas y Oleicos,20.93357,-89.6802173,,"manufacturer,point_of_interest,establishment",False,,0.0,9999.0,True
places/ChIJo_mpk-5zVo8RVMBf_Ak6l7o,Fábrica Bimbo Yucatán,20.928095499999998,-89.6762396,,"manufacturer,point_of_interest,establishment",False,,0.0,9999.0,True
places/ChIJUSWx8exyVo8RnYvp367TOFY,Polpusa,20.9281321,-89.67536249999999,,"manufacturer,point_of_interest,establishment",False,,0.0,9999.0,True
places/ChIJAQAAwO5yVo8RV00Gbi6ptT8,Paquetexpress,20.9323581,-89.6745487,,"courier_service,corporate_office,shipping_service,point_of_interest,service,establishment",False,PAQUETE EXPRESS,50.0,24.6,True
places/ChIJqbQKHe5yVo8RtYX3BlGBZNM,OXXO GAS,20.933385,-89.67231799999999,,"gas_station,public_bathroom,point_of_interest,service,establishment",False,APPLIED MEXICO,36.36363636363637,30.2,True
places/ChIJweZqPsByVo8R2RrIFWs53PU,Oficinas Bachoco,20.928132899999998,-89.6825762,,"corporate_office,point_of_interest,establishment",False,,0.0,9999.0,True
places/ChIJbYyhE1dzVo8RZe8Xft1hB9c,Salón de eventos Lux,20.923546599999998,-89.6687065,,"event_venue,point_of_interest,service,establishment",False,IGLESIA PENIEL,29.411764705882348,28.2,True
places/ChIJ1-pVRVhyVo8RXJBJMqoPEy4,Mérida International Airport,20.9335705,-89.65659889999999,,"international_airport,airport,transportation_service,point_of_interest,establishment",False,,0.0,9999.0,True
places/ChIJXeoL7PZyVo8RD8AyQmbWcm8,Hertz México | Aeropuerto Mérida | Renta de Autos,20.934335900000004,-89.6661934,,"car_rental,point_of_interest,service,establishment",False,TARGET RENT A CAR,33.333333333333336,13.5,True
places/ChIJPZo1PEdzVo8Rs6Q7vK0SgNA,Los Trompos | Aeropuerto,20.935609799999998,-89.6676425,,"restaurant,mexican_restaurant,food,point_of_interest,establishment",False,,0.0,9999.0,True
places/ChIJd09y3_lyVo8RkHv2k9jRsD0,Avis Renta de Autos,20.933579,-89.665579,,"car_rental,finance,point_of_interest,service,establishment",False,AVIS MID AEROPUERTO ESTACIONAMIENTO,51.85185185185186,6.6,True
places/ChIJ-6tWTfZyVo8Ry9XKVDi-UFU,Mex Rent a Car,20.935397400000003,-89.66457059999999,,"car_rental,point_of_interest,service,establishment",False,,0.0,9999.0,True
places/ChIJeec00PZyVo8RyUPgKmf-5YU,Europcar Merida Airport - Check Out,20.933027499999998,-89.6652141,,"car_rental,point_of_interest,service,establishment",False,AEROMEXICO CARGO,39.21568627450981,44.7,True
places/ChIJ3zblJ-5yVo8RhprNDJBobhE,Centro de Ventas Bimbo Sur,20.9349979,-89.672619,,"storage,supplier,manufacturer,wholesaler,food,point_of_interest,establishment",False,,0.0,9999.0,True
places/ChIJMZ29xmFxVo8RjsRNzl_ul_U,Instituto Electoral del Estado de Yucatán,20.9307479,-89.6756286,,"association_or_organization,point_of_interest,local_government_office,government_office,establishment",False,,0.0,9999.0,True
places/ChIJHaMjTEZyVo8RQzWZKcePQhY,Base Aérea Militar No. 8,20.9368442,-89.6453231,,"service,transportation_service,point_of_interest,establishment",False,BASE AEREA NO 8,71.7948717948718,9.4,True
places/ChIJ189QfDpyVo8R7t2ryaVXb_M,Del Bosque,20.9378352,-89.6372884,,"mexican_restaurant,breakfast_restaurant,meal_delivery,meal_takeaway,bar,coffee_shop,cafe,food_store,food_delivery,store,restaurant,food,point_of_interest,establishment",False,EL BOSQUE RESTAURANTE,58.06451612903225,1.5,True
places/ChIJuSvA0jlyVo8RoSOy5AuOmgc,La Gio,20.9377209,-89.6415665,,"bar_and_grill,bar,restaurant,food,point_of_interest,establishment",False,PIÑATERIA GINA,40.0,19.3,True
places/ChIJo6ahg5ZxVo8Rh3GAZvFpask,IMSS U.M.F. 58 MÉRIDA,20.9283313,-89.60816779999999,,"general_hospital,hospital,medical_clinic,health,service,point_of_interest,establishment",False,CAJERO AUTOMÁTICO CITIBANAMEX,24.0,31.8,True
places/ChIJAa9wmVtxVo8RG2pGmb5tHfQ,UMF #42 IMSS,20.9277098,-89.60842500000001,,"medical_clinic,health,point_of_interest,establishment",False,42 SUR,55.55555555555556,32.4,True
places/ChIJ7f2r6ZRxVo8RwqhU-l6A3Jw,Subdelegación IMSS Mérida Sur,20.9283106,-89.6100434,,"local_government_office,government_office,service,point_of_interest,establishment",False,,0.0,9999.0,True
places/ChIJ_6XaqIhxVo8RUN0mU_lghuc,Little Caesars Pizza,20.937996,-89.6209322,,"pizza_restaurant,fast_food_restaurant,meal_takeaway,restaurant,food,point_of_interest,establishment",False,LITTLE CAESARS SUCURSAL CIRCUITO SUR,57.14285714285714,3.0,True
places/ChIJtzv9xG1xVo8Ru7osnN6nXhg,Mi Bodega Aurrera 50 Sur,20.924829799999998,-89.62087609999999,,"supermarket,grocery_store,food_store,store,food,point_of_interest,establishment",False,MI BODEGA CALLE 50 4993,51.06382978723405,15.9,True
places/ChIJdbjWAXVxVo8RNGPs-ihjWgw,Banco BBVA,20.9384063,-89.6191376,,"bank,finance,point_of_interest,establishment",False,LABORATORIO CLINICO,41.379310344827594,42.4,True
places/ChIJUQF1PvdxVo8RgugDXYaoNzo,Clínica Bellas Mérida,20.9237121,-89.61227029999999,,"spa,dental_clinic,medical_clinic,health,point_of_interest,establishment",False,,0.0,9999.0,True
places/ChIJ4yhYvJJxVo8RHed7Rq-dN08,Domino's Pizza,20.927602399999998,-89.6150054,,"pizza_restaurant,fast_food_restaurant,meal_takeaway,pizza_delivery,meal_delivery,food_delivery,restaurant,food,point_of_interest,establishment",False,PIZZERIA PINCHE PIZZA,45.714285714285715,31.3,True
places/ChIJG-1WFvJxVo8RCLx9_yO5ovM,Álamos del Sur Park,20.921498,-89.6166678,,"park,point_of_interest,establishment",False,1157 ABARROTES DUNOSUSA SUCURSAL ALAMOS DEL SUR,33.333333333333336,43.4,True
places/ChIJTRrh0YJxVo8RV489zDC27vg,X Región Militar,20.9295884,-89.60795619999999,,"service,point_of_interest,establishment",False,CUARTEL GENERAL X REGION MILITAR,62.5,38.6,True
places/ChIJ_5fYX5FxVo8RpiebSgc6Lr8,MOTEL EROS II,20.928095,-89.59724620000001,,"lodging,point_of_interest,establishment",False,SANDUX,10.526315789473683,12.9,True
places/ChIJ-9TZ0VJxVo8Rsev8NqWC3fI,11/o. Batallón de Infantería,20.9292808,-89.6064988,,"service,point_of_interest,establishment",False,,0.0,9999.0,True
places/ChIJdQdcz8FxVo8REW4k0GqIJGQ,42 sur - Circuito Interior,20.9226503,-89.60556620000001,,"point_of_interest,establishment",False,,0.0,9999.0,True
places/ChIJydOt1qJxVo8Rz2MEW3HFAXU,Recepciones Zapata,20.9386942,-89.6042501,,"wedding_venue,event_venue,service,point_of_interest,establishment",False,SALA DE FIESTAS ZAPATA,55.00000000000001,10.1,True
places/ChIJWe7wp5JxVo8RM93_ToWczoo,Motel M52,20.937453599999998,-89.58414250000001,,"hotel,lodging,point_of_interest,establishment",False,,0.0,9999.0,True
places/ChIJB9W-D596Vo8RUXoAK5CZcLo,Najma Remates,20.938820099999997,-89.5809524,,"point_of_interest,establishment",False,TENDEJON KARLITA,34.48275862068966,27.4,True
places/ChIJDWVE28FxVo8RiI96zEHjMdg,Puente de la 42 (SEDENA),20.9223304,-89.6057914,,"bridge,transportation_service,point_of_interest,establishment",False,LA CABAÑITA,22.857142857142854,44.5,True
places/ChIJFWP_NwBxVo8RxogZXzCYODY,MEI LING MAYOREO PERIFÉRICO,20.937668799999997,-89.5855488,,"shopping_mall,point_of_interest,establishment",False,TALLER MECANICO CHABELO,40.0,40.4,True
places/ChIJzWfDQERxVo8Rz97zWH5NiUc,Papelería Casa Marchand Mérida,20.9270843,-89.59850920000001,,"supplier,point_of_interest,store,establishment",False,AGROTACSA MERIDA,43.47826086956522,37.6,True
places/ChIJb504zbZxVo8RdyQBkZtEk10,Salón Cisley,20.9321718,-89.5938931,,"banquet_hall,event_venue,point_of_interest,establishment",False,FINANCIAMIENTO SISTEMA FOTOVOLTAICO YUCATAN SOLAR,26.22950819672131,42.3,True
places/ChIJSeZYerhxVo8RBDZ5D_7t34U,Gasolinera,20.9269011,-89.59877,,"gas_station,point_of_interest,service,establishment",False,CORPORATIVO GASOLINERO DEL CARIBE,41.860465116279066,28.4,True
places/ChIJd4YPlUlwVo8R5wcwxaXMsJk,Eventos California,20.927878399999997,-89.5818309,,"event_venue,point_of_interest,establishment",False,SALA DE FIESTA CALIFORNIA,69.76744186046511,14.9,True
places/ChIJN-CUzEt1Vo8RtdOFUncmMgI,Jardín Imperio,20.929249,-89.5821483,,"event_venue,point_of_interest,service,establishment",False,,0.0,9999.0,True
places/ChIJ5W3fE6B6Vo8RH_AF1ICQZ4k,Hacienda El Gran Chaparral,20.924928299999998,-89.54919559999999,,"wedding_venue,event_venue,service,point_of_interest,establishment",False,,0.0,9999.0,True
places/ChIJyzUxfRZxVo8RjvmlLStZLtY,Ayuntamiento de Kanasín,20.934553100000002,-89.55792079999999,,"city_hall,local_government_office,government_office,service,point_of_interest,establishment",False,CAJERO AUTOMÁTICO SANTANDER,52.0,13.7,True
places/ChIJ9Qywuy1xVo8RI9Gvbe9M9p4,"Mi Bodega Aurrera, Kanasín",20.936369199999998,-89.5636919,,"supermarket,grocery_store,food_store,store,food,point_of_interest,establishment",False,LONCHERIA YASMIN,38.095238095238095,28.7,True
places/ChIJvXppl3ZwVo8R_XkqWgP_Pww,IMSS No. 14 Kanasín,20.9327611,-89.5528365,,"medical_clinic,point_of_interest,health,establishment",False,UNIDAD DE MEDICINA FAMILIAR NUMERO 14 KANASIN,43.75,40.7,True
places/ChIJeceIUHVwVo8RIMC7Pb6fLzQ,Fiscalía Kanasín,20.9268723,-89.55019659999999,,"courthouse,local_government_office,government_office,service,point_of_interest,establishment",False,FISCALIA GENERAL DEL ESTADO DE YUCATAN,40.74074074074075,17.8,True
places/ChIJO-tztXFwVo8R34di2Z4pE8E,Municipio de Kanasin Main Park,20.9350853,-89.55789949999999,,"park,point_of_interest,establishment",False,DIRECCION DE MANTENIMIENTO,46.42857142857143,43.3,True
places/ChIJzfdDYF1wVo8RUzLr0A3wnsE,Juzgado Cuarto Mixto de lo Civil y Familiar del Primer Departamento Judicial del Estado de Yucatán,20.9391249,-89.56930280000002,,"courthouse,government_office,service,point_of_interest,establishment",False,,0.0,9999.0,True
places/ChIJJVAaam1wVo8RYzdieFlwlTo,EL PORTÓN,20.9277653,-89.56013899999999,,"convenience_store,food_store,store,food,point_of_interest,establishment",False,TENDEJON EL PORTON,59.25925925925925,3.4,True
places/ChIJK1sbK25wVo8Rg_CLrXONU48,Municipal market Kanasín,20.9352134,-89.5589244,,"market,point_of_interest,establishment",False,POLLERIA LOS MACIZOS KANASIN,50.0,47.7,True
places/ChIJhYP-ZABxVo8RvkV6OucTEbk,INE Módulo de Atención Kanasín,20.9342401,-89.55773789999999,,"government_office,point_of_interest,establishment",False,MODULO FIJO INE,48.88888888888889,10.0,True
places/ChIJT9LZHgBxVo8RtV-8gqDXLYc,BBVA Kanasín,20.934531699999997,-89.5571717,,"bank,finance,point_of_interest,establishment",False,FARMACIA DEL BAZAR KANASIN,47.36842105263158,27.9,True
places/ChIJW3Jtdm9wVo8RaTlguFyXZNk,Elektra,20.936903599999997,-89.56171719999999,,"store,cell_phone_store,bicycle_store,sporting_goods_store,furniture_store,home_improvement_store,home_goods_store,manufacturer,point_of_interest,establishment",False,TAQUERIA ELECKTRA,58.33333333333333,29.4,True
places/ChIJs7acqIpxVo8RzD9Xx3bprAE,La Patrona - Huevos Motuleños.,20.9380903,-89.56764679999999,,"restaurant,food,point_of_interest,establishment",False,,0.0,9999.0,True
places/ChIJ468f6mdwVo8RPDiYlKWka4o,TIENDAS LA PLAZA,20.9391403,-89.5676727,,"store,point_of_interest,establishment",False,GRANJAS KAKI BODEGAS KANASIN,40.90909090909091,40.6,True
places/ChIJOeRC6INxVo8RxOtu1TByLbk,Catastro Kanasín Nueva Ubicación,20.931628399999997,-89.5532801,,"corporate_office,point_of_interest,establishment",False,CATASTRO MUNICIPAL,52.0,27.0,True
places/ChIJSbNOgS8NVo8RtlBW7s_yHyU,"Solana, Residential Tixcacal",20.943168999999997,-89.7100237,,"housing_complex,service,point_of_interest,establishment",False,POSTRE MIS CAKE,23.25581395348837,35.0,True
places/ChIJC-nKyCMNVo8RAL-IS1HiOhE,Hacienda San Diego Tixcacal,20.943401599999998,-89.7163168,,"event_venue,point_of_interest,establishment",False,,0.0,9999.0,True
places/ChIJ7dq_IwANVo8RVMxAPDJo8Ko,Cluster 3 Solana Residencial,20.939100999999997,-89.7098571,,"housing_complex,service,point_of_interest,establishment",False,,0.0,9999.0,True
places/ChIJc3NiKwINVo8RazLG7JZLZN8,Macrobodega Huevo Crío,20.950471399999998,-89.7114459,,"winery,farm,supplier,wholesaler,manufacturer,service,point_of_interest,food,establishment",False,,0.0,9999.0,True
places/ChIJScZ2Pi8NVo8RYGNip8uI2XY,Residencial los Faisanes,20.943581899999998,-89.7095285,,"housing_complex,service,point_of_interest,establishment",False,MUNDO LIMPIO ARTICULOS PARA LIMPIEZA,33.333333333333336,44.1,True
places/ChIJw8-asytyVo8RtSx1c7uU0GY,Casa Santos Lugo S.A. de C.V.,20.9501332,-89.7064894,,"storage,supplier,point_of_interest,establishment",False,,0.0,9999.0,True
places/ChIJOwCw6UENVo8R3ndbwfyE0hI,Quinta Yum Kax,20.952060499999998,-89.7207116,,"event_venue,point_of_interest,establishment",False,,0.0,9999.0,True
places/ChIJ4akbEwANVo8RWFl8UibLLOU,Bodega Aurrera Express Paseos de Mérida Tixcacal,20.9333608,-89.710428,,"store,point_of_interest,establishment",False,THE COFFE MOON MID,30.303030303030297,37.2,True
places/ChIJUyv2xmoNVo8RJmP9P_lVao4,Abarrotera del Duero SA de CV,20.9432334,-89.70373529999999,,"wholesaler,point_of_interest,establishment",False,,0.0,9999.0,True
places/ChIJOTAXSgANVo8RKLk5Ik98t60,CEDIS Maseca Mérida,20.9427263,-89.7043087,,"manufacturer,point_of_interest,establishment",False,C351 BODEGA MERIDA,48.64864864864865,37.0,True
places/ChIJ2d2mlSkNVo8RISeaCAh5sw0,Corralón II,20.9485711,-89.70630179999999,,"lodging,point_of_interest,establishment",False,,0.0,9999.0,True
places/ChIJyzG_jCkNVo8RKhFgjMxGAH8,Impulsora Sahuayo,20.948511,-89.7057274,,"corporate_office,point_of_interest,establishment",False,,0.0,9999.0,True
places/ChIJhzB1IwQNVo8RCzeL2m24dRk,Tienda La Favorita - GRUPO MERZA,20.9427822,-89.70380569999999,,"store,point_of_interest,establishment",False,C351 BODEGA MERIDA,40.0,18.4,True
places/ChIJQzvifip0Vo8Radk6PileTXQ,Tresguerras Motor Carrier Cargo SA de CV,20.940227,-89.697948,,"point_of_interest,establishment",False,AUTOTRANSPORTES DE CARGA TRES GUERRAS,46.753246753246756,24.6,True
places/ChIJ2dlgXMNzVo8RTR4GrVajq4Y,Mercado libre Mérida opichen,20.9439836,-89.69891199999999,,"winery,farm,manufacturer,service,food,point_of_interest,establishment",False,,0.0,9999.0,True
places/ChIJUVQVliwNVo8R1UIccMoMkOw,MAIN,20.9432011,-89.70210469999999,,"courier_service,shipping_service,service,point_of_interest,establishment",False,,0.0,9999.0,True
places/ChIJAQAAwCdzVo8RMauEnFzi1dI,Transportes Especializados Gal S.A. de C.V.,20.9536136,-89.70401319999999,,"moving_company,shipping_service,storage,transportation_service,service,point_of_interest,establishment",False,,0.0,9999.0,True
places/ChIJY0LcttRyVo8Rgk5XxjN6H9s,Moon Hotel Tematico,20.9456343,-89.6998459,,"motel,lodging,point_of_interest,establishment",False,MOTEL MOON,48.275862068965516,26.9,True
places/ChIJd1GiFysNVo8RVHfmwdJlxWc,Reyma Del Sureste,20.9461536,-89.7022416,,"manufacturer,point_of_interest,establishment",False,,0.0,9999.0,True
places/ChIJocvuq9ByVo8ROfJuKJkNL0E,La Joya Park,20.9445617,-89.6915464,,"park,playground,point_of_interest,establishment",False,,0.0,9999.0,True
places/ChIJWcQfSStzVo8RnNinN4xF6hA,Interceramic CEDIS Merida,20.955245899999998,-89.69998369999999,,"building_materials_store,home_goods_store,store,point_of_interest,establishment",False,INTERCERAMIC,64.86486486486487,16.0,True
places/ChIJIwC8HuJyVo8ROpesosdubNM,TIENDA SABINO`S,20.9491166,-89.6767472,,"convenience_store,food_store,store,food,point_of_interest,establishment",False,TIENDA DE ABARROTES SABINOS,66.66666666666667,23.3,True
places/ChIJZ_ZxOOByVo8RzG_Gl0JdlhY,Hacienda San Juan Opichén,20.9483751,-89.68047600000001,,"hotel,lodging,point_of_interest,establishment",False,,0.0,9999.0,True
places/ChIJjfPaX0tyVo8Rua7ZKfMPmzw,Sam's Club,20.948739,-89.6488471,,"department_store,liquor_store,store,point_of_interest,establishment",False,,0.0,9999.0,True
places/ChIJk91TRFtxVo8RpAGq4PIZt0s,Hotel Hacienda Inn Aeropuerto,20.9480516,-89.6516631,,"hotel,lodging,point_of_interest,establishment",False,,0.0,9999.0,True
places/ChIJb-V77xFzVo8RFHURZskA6vM,Grupo Boxito SA de CV,20.9433689,-89.6482315,,"hardware_store,building_materials_store,store,point_of_interest,establishment",False,GRUPO BOXITO CORPORATIVO,66.66666666666667,49.8,True
places/ChIJ8aQ5hKlzVo8RF1QlVT5nvdQ,Japonés Park,20.9566616,-89.6607533,,"park,tourist_attraction,point_of_interest,establishment",False,,0.0,9999.0,True
places/ChIJT-MZa_hyVo8RYzhxCOuJu44,CEMEX - Ground Mérida,20.9401694,-89.6639957,,"manufacturer,point_of_interest,establishment",False,PRO AMBIENTE MERIDA TR,41.860465116279066,46.5,True
places/ChIJWdJtipdzVo8Rnm8s_QJNXRY,Sams,20.9489807,-89.6494111,,"shopping_mall,point_of_interest,establishment",False,SAMS AVIACION 6286,36.36363636363637,34.2,True
places/ChIJh7a7sVZyVo8R-MOOU3eAfqI,DHL Express Service Point (LIBERTAD),20.9430017,-89.659286,,"courier_service,shipping_service,service,point_of_interest,establishment",False,MID - LIBERTAD,40.0,16.7,True
places/ChIJjYzU7UxyVo8RkwdxewcmKY8,Refaccionaria AutoZone,20.948204999999998,-89.650427,,"auto_parts_store,store,car_repair,service,point_of_interest,establishment",False,AUTOZONE DE MEXICO SUCURSAL 7225 MERIDA - ITZAES,42.85714285714286,24.9,True
places/ChIJi-ez1UlzVo8RFVC7u8sE8JM,Bodega Aurrera Itzaes,20.9539018,-89.64319379999999,,"supermarket,grocery_store,food_store,store,food,point_of_interest,establishment",False,,0.0,9999.0,True
places/ChIJAyUYBSxyVo8RaMEIbegcdPI,VILLA PALMIRA Sports Complex,20.9433948,-89.6306867,,"sports_complex,playground,sports_activity_location,point_of_interest,establishment",False,,0.0,9999.0,True
places/ChIJ7euqq8tzVo8R-lIoXsaoDMA,General Cemetery,20.950799300000003,-89.64069119999999,,"cemetery,service,point_of_interest,establishment",False,,0.0,9999.0,True
places/ChIJ990WLTFyVo8Rby_k2U7XSXA,Parque de la Melitón Salazar,20.9419017,-89.63913920000002,,"city_park,park,point_of_interest,establishment",False,,0.0,9999.0,True
places/ChIJf0TJbStyVo8Rq5OISJybBjY,Monument to Pedro Infante,20.9480598,-89.62901959999999,,"monument,sculpture,point_of_interest,establishment",False,IMPRENTA ELITE,41.02564102564102,17.5,True
places/ChIJw2kGGMZzVo8Rs-AL6iEzkg0,Banco Santander,20.952031599999998,-89.646228,,"bank,finance,point_of_interest,establishment",False,LAVANDERIA LAVAKI,50.0,44.7,True
places/ChIJ5Tecd4VxVo8RjLqfFP3Ke8A,Super Akí Santa Rosa,20.9387079,-89.6179155,,"supermarket,atm,finance,grocery_store,food_store,store,food,point_of_interest,establishment",False,CAJERO AUTOMÁTICO BANORTE IXE,36.73469387755102,32.1,True
places/ChIJy64cZP9xVo8RMdIf5tAPTNo,Aloha mid Frappería,20.9437703,-89.61743949999999,,"coffee_shop,dessert_shop,confectionery,cafe,restaurant,food_store,store,food,point_of_interest,establishment",False,FRAPERIA HALOJA,47.05882352941176,11.0,True
places/ChIJkUBc5ndxVo8RKb_YxYxLGfk,DISFRAZ-AT MÉRIDA,20.9510275,-89.61483659999999,,"clothing_store,store,point_of_interest,establishment",False,ALQUILADORA DE DISFRACES DISFRAZ-AT,38.46153846153846,10.6,True
places/ChIJA3Ebu9ZzVo8R-x5Qhdxu1RY,La ermita,20.953937,-89.63285789999999,,"pizza_restaurant,church,place_of_worship,association_or_organization,restaurant,food,point_of_interest,establishment",False,PIZZERIA LA ERMITA,66.66666666666667,2.3,True
places/ChIJK3OuzSlyVo8RPGQlimyBAa8,Parque Dolores Otero,20.9408974,-89.6259237,,"park,point_of_interest,establishment",False,INSTITUTO DE EDUCACION PARA ADULTOS DEL ESTADO DE YUCATAN,36.36363636363637,47.7,True
places/ChIJVVVVAbFxVo8R5bLSoNY0XqM,Kukulcan Alamo Park,20.9411417,-89.5959725,,"stadium,sports_complex,event_venue,sports_activity_location,point_of_interest,establishment",False,,0.0,9999.0,True
places/ChIJDTeNFqlxVo8RLj_ZLP3HO7U,Estadio Carlos Iturralde,20.9460414,-89.59367999999999,,"stadium,sports_complex,event_venue,sports_activity_location,point_of_interest,establishment",False,,0.0,9999.0,True
places/ChIJQ9MxK6xxVo8RHRnVcaAi7Ng,Plaza Kukulcán,20.9414712,-89.5919057,,"shopping_mall,point_of_interest,establishment",False,,0.0,9999.0,True
places/ChIJVc4fMK9xVo8RphTVy_3Yb_Y,Kukulcan Sports Unit,20.943561499999998,-89.5942153,,"sports_complex,sports_activity_location,point_of_interest,establishment",False,,0.0,9999.0,True
places/ChIJb_Eiia5xVo8RR2ksw4tmTeI,Poliforum Zamna,20.9412423,-89.594266,,"event_venue,point_of_interest,establishment",False,,0.0,9999.0,True
places/ChIJe2-vKKxxVo8R9_bE5KDQq9E,Bodega Aurrerá,20.941385999999998,-89.5919359,,"supermarket,grocery_store,food_store,food,point_of_interest,store,establishment",False,,0.0,9999.0,True
places/ChIJ-9jtT6VxVo8Rr3OGzjjBL6U,CBTis 95,20.9389584,-89.5975821,,"educational_institution,point_of_interest,establishment",False,,0.0,9999.0,True
places/ChIJu-8Zd-1xVo8RfK_hTv26378,Refaccionaria AutoZone,20.946219,-89.5921886,,"auto_parts_store,car_repair,point_of_interest,store,service,establishment",False,,0.0,9999.0,True
places/ChIJMTr3y61xVo8RgA_aDItFOrU,Cinepolis,20.94089,-89.5917761,,"movie_theater,point_of_interest,establishment",False,,0.0,9999.0,True
places/ChIJMUTlfQBxVo8RGjNfMgEZgzM,Chedraui Kanasín,20.9425905,-89.57481,,"grocery_store,food_store,food,point_of_interest,store,establishment",False,,0.0,9999.0,True
places/ChIJR3gstVlwVo8RsYDt3TRP-GE,ACUAPARQUE,20.947761399999997,-89.5766532,,"tourist_attraction,park,point_of_interest,establishment",False,,0.0,9999.0,True
places/ChIJA0KFnTFxVo8RC3FZXHFh5Ks,CEDIS Dunosusa,20.9435954,-89.5699824,,"supplier,point_of_interest,establishment",False,,0.0,9999.0,True
places/ChIJM5PC6aRxVo8RCvOBysyH01s,PIZZA & CORRE,20.939663499999998,-89.5999434,,"pizza_restaurant,fast_food_restaurant,italian_restaurant,restaurant,food,point_of_interest,establishment",False,PIZZERIA PIZZA Y CORRE,62.857142857142854,19.2,True
places/ChIJ_x4WsdJxVo8R1hLCUNPDDK8,Banco BBVA,20.940618000000004,-89.5924273,,"bank,atm,insurance_agency,consultant,finance,service,point_of_interest,establishment",False,EL NOA NOA,40.0,43.2,True
places/ChIJ70Gw165xVo8REKVh6X85khs,"Multigym ""Socorro Ceron Herrera""",20.9436242,-89.59444529999999,,"sports_complex,gym,health,sports_activity_location,point_of_interest,establishment",False,,0.0,9999.0,True
places/ChIJySOcCsBxVo8RxcAvQ8uWdF4,Carl´s Jr. Oriente,20.9547557,-89.5664101,,"hamburger_restaurant,fast_food_restaurant,american_restaurant,restaurant,food,point_of_interest,establishment",False,CARLS JUNIOR,60.0,16.0,True
places/ChIJR0SJygtxVo8R0aWvz-ZCqNs,"LAVANDERÍA ""LIZ""",20.9546885,-89.5739937,,"laundry,service,point_of_interest,establishment",False,LAVANDERIA LIZ,60.0,9.7,True
places/ChIJhZ9mCH1wVo8RHgpFehG9Dn8,Centro Nocturno Safari'S,20.9479675,-89.55708720000001,,"night_club,point_of_interest,establishment",False,CENTRO NOCTURNO SAFARI CIEN POR CIENTO DOS MIL,62.857142857142854,0.3,True
places/ChIJu7tmvGBwVo8RpS1QoEQHnFY,Coppel Cedis Merida,20.945207,-89.5679943,,"department_store,home_goods_store,store,point_of_interest,establishment",False,CAJERO AUTOMÁTICO BANCOPPEL,47.82608695652174,19.8,True
places/ChIJJZxnGYtwVo8RWfGFnWvIgvY,Dfox Merida,20.953504,-89.5672323,,"association_or_organization,point_of_interest,establishment",False,D FOX,50.0,36.1,True
places/ChIJFzLUqYxwVo8RQZpZafx3JVE,GOmart Oriente,20.956278599999997,-89.56826160000001,,"convenience_store,food_store,food,store,point_of_interest,establishment",False,GOMART,60.0,27.7,True
places/ChIJA1tbqWJwVo8RdDp6pL9bBhs,Osiris Cabaret de Medio dia,20.9498486,-89.5596786,,"night_club,point_of_interest,establishment",False,OSIRIS CABARET,68.29268292682926,6.6,True
places/ChIJhUuXlxlxVo8R2IlkF9QDjrs,Gasolinera Abimerhi Kanasín,20.954708,-89.56689809999999,,"gas_station,service,point_of_interest,establishment",False,SERVICIOS PARA MONTACARGAS,33.9622641509434,44.3,True
places/ChIJLRcQ0lVwVo8RQQC04wNu1MA,Universidad Pedagógica Nacional Mérida,20.948408099999998,-89.58201419999999,,"university,educational_institution,point_of_interest,establishment",False,,0.0,9999.0,True
places/ChIJD5qh6V9wVo8Rm11nwOUzjsk,Bepensa sports unit,20.9477217,-89.56901859999999,,"sports_club,fitness_center,gym,association_or_organization,sports_activity_location,health,point_of_interest,establishment",False,,0.0,9999.0,True
places/ChIJSz73ptMMVo8RLxLP-EkZ7lQ,Pgr State Delegation in Yucatan,20.958279899999997,-89.7030662,,"corporate_office,point_of_interest,establishment",False,,0.0,9999.0,True
places/ChIJuXI2fgANVo8RjFWlLo5oydQ,FRIGUS BOHN PLANTA MERIDA,20.955521200000003,-89.7058291,,"manufacturer,point_of_interest,establishment",False,,0.0,9999.0,True
places/ChIJCcas5eINVo8Rq_Go4sKKlmQ,Red Ambiental Mérida - Manejo integral de residuos Municipales y Comerciales,20.9712833,-89.71158129999999,,"point_of_interest,service,establishment",False,,0.0,9999.0,True
places/ChIJE4kjVAANVo8RAHg1bnNaFEo,Fraccionamiento Gran Tixcacal,20.9492312,-89.7150357,,"housing_complex,point_of_interest,service,establishment",False,,0.0,9999.0,True
places/ChIJE4Cp6vwNVo8RzwVoAFhXZ3I,Villa Real Del Sol,20.9463291,-89.71270229999999,,"banquet_hall,event_venue,point_of_interest,establishment",False,,0.0,9999.0,True
places/ChIJ3bPHNAANVo8RhEW8zDFEqPo,NOVACOLOR - EL FUERTE (CENTRO ESPECIALIZADO EN VALUACION Y REPARACION),20.9445551,-89.7129362,,"car_repair,point_of_interest,service,establishment",False,,0.0,9999.0,True
places/ChIJpUnYPSENVo8ROI5sfN-3UBs,Capilla San Diego de Alcalá,20.9463395,-89.7155854,,"church,place_of_worship,association_or_organization,point_of_interest,establishment",False,,0.0,9999.0,True
places/ChIJY0Xqsf8NVo8Rm-CxJ1pTlo0,Autopartes Estrella,20.944463799999998,-89.71328849999999,,"shopping_mall,point_of_interest,establishment",False,,0.0,9999.0,True
places/ChIJ3bTHNw0NVo8RTOtTAkec4C0,"Casa Santos Lugo, Comercializadora mayoreo",20.950824,-89.7052459,,"supermarket,grocery_store,food_store,food,store,point_of_interest,establishment",False,,0.0,9999.0,True
places/ChIJ0b9m9ZQNVo8RWCIgZOfExNw,Nave Augusta,20.9565833,-89.71133329999999,,"manufacturer,point_of_interest,establishment",False,,0.0,9999.0,True
places/ChIJ8TCz2ikNVo8R85O7-Y9TYbE,Puntalsa México,20.9577255,-89.71359650000001,,"building_materials_store,store,point_of_interest,establishment",False,,0.0,9999.0,True
places/ChIJOV1r9csNVo8Rb1OEHibqSWI,Escuela Salvador Alvarado Tixcacal,20.9434175,-89.7144881,,"educational_institution,point_of_interest,establishment",False,,0.0,9999.0,True
places/ChIJiYU4CwANVo8Rb4H695iDtUw,Abarrotes la Mexicana (CEDIS 2),20.95453,-89.703881,,"general_store,food_store,food,store,point_of_interest,establishment",False,,0.0,9999.0,True
places/ChIJcbX-ci1zVo8RGP8F6U0oWBM,Secretariat of Public Safety of Yucatan,20.9605414,-89.69926559999999,,"local_government_office,government_office,service,association_or_organization,point_of_interest,establishment",False,BANORTE IXE,19.999999999999996,27.9,True
places/ChIJC_AeOYJzVo8RFDfUQBHoKSw,Hacienda Susulá,20.9744693,-89.6963265,,"hotel,resort_hotel,lodging,point_of_interest,establishment",False,,0.0,9999.0,True
places/ChIJU7LiFi1zVo8RgvoUQn5aRF0,SSP Yucatán periférico Manuel berzunza berzunza,20.9602759,-89.6990625,,"corporate_office,point_of_interest,establishment",False,CAJERO AUTOMÁTICO BANORTE IXE,28.947368421052634,49.0,True
places/ChIJCcj1ONRyVo8RJKY_Yq9miPQ,Colegio Regional de Mexico,20.9465169,-89.69678479999999,,"primary_school,preschool,child_care_agency,school,educational_institution,service,point_of_interest,establishment",False,SISTEMA NACIONAL DE EDUCACION VALLADOLID,36.36363636363637,8.1,True
places/ChIJRfG-ENUMVo8RszDwkAfj_6I,Gal Cedis Frío,20.9530501,-89.7021013,,"storage,point_of_interest,establishment",False,,0.0,9999.0,True
places/ChIJfe_JAkhzVo8RDPRIOMe2LIM,ISSSTE,20.9742154,-89.6914189,,"general_hospital,hospital,service,point_of_interest,health,establishment",False,SANTANDER,40.0,44.9,True
places/ChIJYRKHmxlzVo8ROfCIcepJhoU,"Bodega Aurrera, Juan Pablo Il",20.959640699999998,-89.67767339999999,,"supermarket,grocery_store,food_store,food,point_of_interest,store,establishment",False,,0.0,9999.0,True
places/ChIJ9UtL7A9zVo8RrV4VD1rw54g,Cementerio Xoclán,20.9626132,-89.6714891,,"cemetery,service,point_of_interest,establishment",False,,0.0,9999.0,True
places/ChIJP5tkDwVzVo8RZlsgITAF7CI,Módulo INE XOCLAN,20.9600835,-89.6702183,,"local_government_office,government_office,point_of_interest,establishment",False,MODULO 310352,40.0,20.6,True
places/ChIJ5TFlnm5xVo8Rxtf6yaiaM9Q,H. Congreso del Estado de Yucatán,20.972945799999998,-89.6905347,,"local_government_office,government_office,point_of_interest,establishment",False,,0.0,9999.0,True
places/ChIJOSkY3BFzVo8RTk2rMynC-Eo,Las Jaibas Mulsay,20.9665498,-89.67265309999999,,"seafood_restaurant,restaurant,food,point_of_interest,establishment",False,RESTAURANT TURISTICO FAMILIAR LAS JAIBAS,45.614035087719294,20.7,True
places/ChIJDdrETABzVo8RBg42um7K1iU,Unidad de Medicina Familiar #60 Juan Pablo II IMSS,20.9697832,-89.67767119999999,,"point_of_interest,medical_clinic,health,establishment",False,INSTITUTO MEXICANO DEL SEGURO SOCIAL UMF 60,45.16129032258065,46.8,True
places/ChIJZbIxLhVzVo8RHq1e5RFFzYo,"Canchas Fut 7 ""Los Paseos""",20.9718785,-89.67995379999999,,"park,sports_activity_location,point_of_interest,establishment",False,TIENDA LA DIVINA MISERICORDIA,25.454545454545453,46.8,True
places/ChIJOyKHvqxzVo8R1eHf4Q5rz7Y,Cecofay,20.9743809,-89.6857574,,"corporate_office,point_of_interest,establishment",False,CENDI 6 ISSTEY,28.57142857142857,40.1,True
places/ChIJw3RfTK5zVo8RpeyqsNxYRTQ,Girasoles de opichen,20.9509015,-89.68333439999999,,"nail_salon,beauty_salon,service,point_of_interest,establishment",False,TENDEJON LA ESTRELLA 3,33.333333333333336,21.3,True
places/ChIJk024twpzVo8RDbRNLRP6QKE,Soriana Híper Avenida 128,20.9724456,-89.6644738,,"supermarket,atm,hypermarket,finance,pharmacy,grocery_store,food_store,store,health,food,point_of_interest,establishment",False,CAJERO AUTOMÁTICO CITIBANAMEX,37.03703703703704,27.2,True
places/ChIJXUwKV5hzVo8RsBVQ_PVLaFs,Poniente Ecological Park,20.9744682,-89.6563463,,"park,tourist_attraction,point_of_interest,establishment",False,,0.0,9999.0,True
places/ChIJhXBLpAtzVo8RwHejqooNzcc,COBAY Xoclán,20.970930199999998,-89.6670396,,"school,educational_institution,point_of_interest,establishment",False,,0.0,9999.0,True
places/ChIJ3TPYxKFzVo8RSXigkk_Rd_c,Escuela Normal Superior de Yucatán,20.973281099999998,-89.6594834,,"university,educational_institution,point_of_interest,establishment",False,PAPELERIA VENTA NET,33.9622641509434,30.3,True
places/ChIJtQFuwaNzVo8R2OCsBysrQAY,Secondary General Jose Emilio Galaz Vallado,20.9698596,-89.6567329,,"school,educational_institution,point_of_interest,establishment",False,ESCUELA SECUNDARIA FEDERAL NUMERO 2 JOSE EMILIO VALLADO GALAZ TURNO MATUTINO CLAVE 31DES004F,53.333333333333336,37.6,True
places/ChIJf1_drIxzVo8RabDhK4U3i1o,ADO Terminal de Autobuses - Centro Histórico,20.9626566,-89.6299366,,"transportation_service,point_of_interest,establishment",False,PEME03 SERVICIO TOTAL ABORDO MER,47.36842105263158,32.8,True
places/ChIJRb2bT8FzVo8RNWkFMpW16qA,Parque Zoológico del Centenario,20.9692828,-89.6401597,,"zoo,tourist_attraction,park,point_of_interest,establishment",False,,0.0,9999.0,True
places/ChIJg41JfepzVo8RQ07zTdJrvts,General Hospital Agustín O 'Horan,20.974648800000004,-89.6416204,,"hospital,service,point_of_interest,health,establishment",False,SCOTIABANK INVERLAT,30.76923076923077,26.3,True
places/ChIJBy2v6chzVo8RmwszYPFfBZw,MERIDA CHEDRAUI itzáes,20.9605809,-89.64075369999999,,"supermarket,liquor_store,atm,grocery_store,food_store,finance,food,store,point_of_interest,establishment",False,CAJERO AUTOMÁTICO HSBC MEXICO,39.21568627450981,13.9,True
places/ChIJGydreIxzVo8R-gSscmEOrvc,Hospital Militar Regional de Especialidades HMRE,20.9708115,-89.64340059999999,,"hospital,service,point_of_interest,health,establishment",False,HOSPITAL MILITAR,50.0,41.2,True
places/ChIJxffsKrdzVo8REY88U-H1lIE,"FACULTAD DE MEDICINA, UADY",20.973888,-89.64023689999999,,"university,educational_institution,point_of_interest,health,establishment",False,UNIVERSIDAD AUTONOMA DE YUCATAN FACULTAD DE MEDICINA,64.1025641025641,35.6,True
places/ChIJ1cvyAtpzVo8RcuONaYHAdfE,Ado Tame,20.962785,-89.629947,,"bus_stop,transit_stop,transit_station,transportation_service,point_of_interest,establishment",False,HOTEL A.D.O.,60.0,47.6,True
places/ChIJieaaEspxVo8Rp7JkKKycetI,Hotel Plaza Mirador,20.9642937,-89.6306147,,"hotel,lodging,point_of_interest,establishment",False,COCICNA ECONOMICA LA COCINA DE MAMA,37.03703703703704,19.9,True
places/ChIJdUlZ-sBzVo8R1OZmu10Gdm0,Faculty of Dentistry UADY,20.9706877,-89.6421541,,"university,educational_institution,point_of_interest,health,establishment",False,,0.0,9999.0,True
places/ChIJuS8NqtFzVo8Rs-AJbMvMFWw,Parque de San Sebastián,20.959046999999998,-89.6325856,,"park,tourist_attraction,point_of_interest,establishment",False,SIX SAN SEBASTIAN 1,61.904761904761905,42.4,True
places/ChIJXR9qXN5zVo8RgsukdFGYHkg,Mercado San Benito,20.962465299999998,-89.62062370000001,,"market,grocery_store,food_store,store,food,point_of_interest,establishment",False,,0.0,9999.0,True
places/ChIJw9QPPGJxVo8R4t89L2PCQto,Plaza Grande,20.9670266,-89.6237199,,"park,tourist_attraction,point_of_interest,establishment",False,,0.0,9999.0,True
places/ChIJm2Y6JZhxVo8R9UvQ2c1l_Yg,Centro Mérida,20.9669655,-89.62363239999999,,"tourist_attraction,point_of_interest,establishment",False,,0.0,9999.0,True
places/ChIJtzCcrGFxVo8RZLu9elke5cE,La Chaya Maya,20.9699203,-89.62389189999999,,"mexican_restaurant,restaurant,food,point_of_interest,establishment",False,RESTAURANTE LA CHAYA MAYA,68.42105263157895,6.6,True
places/ChIJSTDOAthzVo8RFoUoZF9xios,Parque de San Juan,20.962713300000004,-89.6261767,,"park,tourist_attraction,point_of_interest,establishment",False,TAQUERIA SAN JUAN,57.14285714285714,40.6,True
places/ChIJ7dD_CGZxVo8RpzKSVQU4sVk,Parque de La Mejorada,20.9683261,-89.61632709999999,,"park,tourist_attraction,point_of_interest,establishment",False,COPIAS LA MEJORADA,61.53846153846154,41.9,True
places/ChIJ30KbcCtyVo8RbQuacCCrDq4,Auto Progreso,20.9643885,-89.62469530000001,,"transportation_service,point_of_interest,establishment",False,CAFETERIA AUTO PROGRESO JULY,63.41463414634146,37.2,True
places/ChIJmVqQqmFxVo8RToCZHwVFUJ4,La Chaya Maya Casona,20.9709632,-89.6231275,,"breakfast_restaurant,mexican_restaurant,restaurant,food,point_of_interest,establishment",False,RESTAURANTE LA CHAYA,55.00000000000001,33.2,True
places/ChIJySogAmFxVo8Rxkkp6OGhQgM,Parque de Santa Lucía,20.971198899999997,-89.6225958,,"park,tourist_attraction,point_of_interest,establishment",False,HOTEL SANTA LUCIA,63.1578947368421,39.4,True
places/ChIJK6RaVWFxVo8RN-kbqqDNO0w,Technology Square Merida,20.9672445,-89.62089929999999,,"shopping_mall,point_of_interest,establishment",False,ACCESORIOS PARA CELULAR GUERREROS TECHNOLOGY,55.88235294117647,26.7,True
places/ChIJd1yvBiZ0Vo8RRYQWOgLEY2A,Teatro Mérida,20.9682538,-89.62416789999999,,"performing_arts_theater,movie_theater,event_venue,point_of_interest,establishment",False,TEATRO ARMANDO MANZANERO,54.054054054054056,20.6,True
places/ChIJg5AwfAlxVo8RnLUKFftdT98,Parque La Plancha,20.9734846,-89.6130756,,"park,point_of_interest,establishment",False,,0.0,9999.0,True
places/ChIJzwXIbANxVo8RxoY9Pt72GLg,Plaza Oriente,20.9600761,-89.5909745,,"shopping_mall,point_of_interest,establishment",False,,0.0,9999.0,True
places/ChIJfUfmn1BxVo8R8OJh4ybhAMU,TIARA MÉRIDA,20.9668679,-89.61997799999999,,"wholesaler,point_of_interest,establishment",False,MÉRIDA,66.66666666666667,17.1,True
places/ChIJJd8orWRxVo8RhPksUBhHVXE,Banco BBVA,20.961562699999998,-89.6196964,,"bank,atm,insurance_agency,finance,consultant,service,point_of_interest,establishment",False,CENTRO BOTANICO PRONATUR,41.17647058823529,26.8,True
places/ChIJaaoYHmRxVo8RBb8DUcJ16hQ,Banco BBVA,20.968129599999997,-89.6195582,,"bank,atm,insurance_agency,finance,consultant,service,point_of_interest,establishment",False,BBVA BANCOMER MERIDA COMERCIO,51.28205128205128,2.7,True
places/ChIJWWpJOhxxVo8RHcxLIIADySc,Chedraui,20.966968299999998,-89.591089,,"supermarket,atm,grocery_store,food_store,finance,store,food,point_of_interest,establishment",False,CHEDRAUI MERIDA ORIENTE T066,44.44444444444444,32.2,True
places/ChIJKw4efGd0Vo8R4QUpmTA7lpU,Fantasías Miguel,20.9682681,-89.62137589999999,,"home_goods_store,store,point_of_interest,establishment",False,FANTASIAS MIGUEL MERIDA CENTRO,65.21739130434783,24.8,True
places/ChIJ8_7hoA1xVo8R7LxBtbPbTTw,Banco Santander Smart,20.9669028,-89.6205255,,"bank,finance,consultant,service,point_of_interest,establishment",False,BANCO SANTANDER PRINCIPAL MERIDA,56.60377358490566,42.9,True
places/ChIJaaPQV7lzVo8RL2-XexKn7zM,Hotel Dolores Alba,20.9654849,-89.6185845,,"hotel,lodging,point_of_interest,establishment",False,HOTEL DORALBA INN MERIDA,47.61904761904761,10.8,True
places/ChIJ8wDwj1tzVo8RVkfw6wxgbVg,"Bodega Aurrera, Quetzalcóatl",20.9595519,-89.5784819,,"supermarket,grocery_store,food_store,store,food,point_of_interest,establishment",False,CAJERO AUTOMÁTICO HSBC MEXICO,31.57894736842105,49.0,True
places/ChIJ-3stgOtwVo8Rlv3339oJqPM,Cruz Roja Mexicana Hospital de Ortopedia,20.959743,-89.58021699999999,,"hospital,point_of_interest,service,health,establishment",False,TIENDA ORTOPEDICA ORIENTE,49.23076923076923,39.7,True
places/ChIJy1e8FB5xVo8RjTmdIip6Q-M,UMF 59 IMSS,20.9693058,-89.5884542,,"hospital,point_of_interest,service,health,establishment",False,BANORTE IXE,18.181818181818176,21.9,True
places/ChIJw4Ur5mtxVo8ROk_17FXeOYg,Muncho,20.9593353,-89.5796548,,"dessert_shop,confectionery,food_store,store,food,point_of_interest,establishment",False,AMORE MIO,26.66666666666667,1.7,True
places/ChIJvZH4ev1wVo8RPGmwAzy-Ves,Little Caesars,20.9595505,-89.5871322,,"pizza_restaurant,meal_takeaway,fast_food_restaurant,restaurant,food,point_of_interest,establishment",False,LITTLE CAESARS SUCURSAL ORIENTE,62.22222222222222,13.5,True
places/ChIJi5Hbjh5xVo8RhidNOaO9lMs,CETIS 112,20.9689832,-89.59015,,"educational_institution,point_of_interest,establishment",False,,0.0,9999.0,True
places/ChIJJcsARR5xVo8RY3IjbuGMn5E,Campus Administración Central UADY,20.9706401,-89.589096,,"university,educational_institution,point_of_interest,establishment",False,,0.0,9999.0,True
places/ChIJKdvm6vpzVo8R74Qhxh6Q6_M,Conalep Mérida 1,20.9699288,-89.5883291,,"educational_institution,point_of_interest,establishment",False,CONALEP MERIDA I TURNO MATUTINO,55.319148936170215,29.2,True
places/ChIJyTLkphNxVo8RWyKmO-6Enx8,Sope Huach,20.9661126,-89.603703,,"mexican_restaurant,banquet_hall,meal_takeaway,fast_food_restaurant,grocery_store,event_venue,restaurant,food_store,store,food,point_of_interest,service,establishment",False,SOPE HUACH ANTOJITOS MEXICANOS,50.0,9.2,True
places/ChIJMZDhM-lwVo8RrQ31-aDta3U,Parroquia de Cristo Rey,20.9684353,-89.5748825,,"church,place_of_worship,association_or_organization,point_of_interest,establishment",False,PARROQUIA DE CRISTO REY Y SANTA MARIA DE GUADALUPE,63.01369863013699,35.0,True
places/ChIJqX_EoWRxVo8RvtF95uEL3cw,GRAND VERSALLES,20.9596745,-89.5841374,,"event_venue,home_goods_store,point_of_interest,store,establishment",False,PERSSA ORIENTE,48.275862068965516,16.1,True
places/ChIJtdG2SfBwVo8RiDL7tytlBR0,PTB TORNIYUC SA de CV,20.9604817,-89.5760245,,"building_materials_store,hardware_store,point_of_interest,store,establishment",False,TORNIYUC,55.172413793103445,12.3,True
places/ChIJvY4SpNpxVo8R5rS_vUXMCMM,Taller Eléctrico Automotriz Aguilar,20.973626499999998,-89.5653857,,"car_repair,point_of_interest,service,establishment",False,TALLER ELECTRICO SIN NOMBRE,48.38709677419355,11.2,True
places/ChIJm0Ojejh7Vo8RxYSe070VWco,Las Palmas Yucatán,20.959461599999997,-89.53375729999999,,"housing_complex,service,point_of_interest,establishment",False,OXXO SUC 50C3H PALMAS YUCATAN CUN,54.90196078431373,13.4,True
places/ChIJOzJp8blxVo8R8KbRM_ufjx8,Fraccionamiento Gran Vistana.,20.970054299999997,-89.5424218,,"association_or_organization,point_of_interest,establishment",False,,0.0,9999.0,True
places/ChIJ5TK9TWh7Vo8RUjy1LlRcgOY,Banco del Bienestar,20.9469639,-89.5475221,,"bank,finance,point_of_interest,establishment",False,RENTA DE LAVADORAS EL OCEANO,34.04255319148937,43.3,True
places/ChIJb0wdFn1wVo8RbqiLeICOsaU,Hotel Spring Cancún,20.9482666,-89.5578371,,"hotel,motel,lodging,point_of_interest,establishment",False,,0.0,9999.0,True
places/ChIJQU7jUZJwVo8R2hBNXbqQgAA,Foxxys Mérida,20.9645673,-89.56567779999999,,"night_club,karaoke,bar_and_grill,bar,restaurant,food,point_of_interest,establishment",False,CENTRO NOCTURNO FOXXYS,45.714285714285715,32.9,True
places/ChIJ2Z9II717Vo8Rmox1Da0vG0w,Residencial OASIS DE ORIENTE,20.9492331,-89.54091079999999,,"service,point_of_interest,establishment",False,,0.0,9999.0,True
places/ChIJEccZzAV7Vo8Rfnt_g41x5tE,Portal San Pedro,20.9443107,-89.542406,,"service,point_of_interest,establishment",False,VENTA DE HAMBURGUESAS LAS DE CHETUMAL,30.188679245283023,19.4,True
places/ChIJmeH3AgB7Vo8RAKDLegKmRM0,AMANECERES,20.9595365,-89.5309542,,"service,point_of_interest,establishment",False,,0.0,9999.0,True
places/ChIJDfsr8HF6Vo8Rx_LbkxD1Ce4,Hogares Union/ Palmas Living,20.9659248,-89.5404008,,"real_estate_agency,service,point_of_interest,establishment",False,,0.0,9999.0,True
places/ChIJy57Zm2lwVo8RHRDgMUQnROo,Grupo Bari,20.9474724,-89.5487488,,"building_materials_store,store,manufacturer,point_of_interest,establishment",False,,0.0,9999.0,True
places/ChIJy57Zm2lwVo8RjgTdAPN-cVI,Gasolinera Gulf,20.950313899999998,-89.56044659999999,,"gas_station,service,point_of_interest,establishment",False,GRUPO PLIEGO VEGA,43.75,35.4,True
places/ChIJC5ADB4R6Vo8R7AU31l6q0iU,MATPREO,20.9437118,-89.5449909,,"store,wholesaler,manufacturer,point_of_interest,establishment",False,,0.0,9999.0,True
places/ChIJN-JYXo57Vo8R4-ZAB-iGX4M,Hacienda Oncán,20.9667654,-89.48146179999999,,"service,point_of_interest,establishment",False,,0.0,9999.0,True
places/ChIJYwCDQZV7Vo8RlXDQdKWvzFs,Triturados Sarzo S.A. de C.V.,20.972703199999998,-89.49088549999999,,"building_materials_store,store,point_of_interest,establishment",False,,0.0,9999.0,True
places/ChIJAQAA0GV0Vo8RL8dVNqKYrwg,Trimmsa,20.9644889,-89.5056152,,"building_materials_store,store,point_of_interest,establishment",False,,0.0,9999.0,True
places/ChIJi7cJ-dB7Vo8RK2V9uoupQ9M,Comisaría Oncán,20.965974499999998,-89.48278189999999,,"point_of_interest,establishment",False,,0.0,9999.0,True
places/ChIJ2cHmNA17Vo8RrnrByU-suzA,Parque industrial KONEXT Merida,20.972525299999997,-89.4895699,,"wholesaler,point_of_interest,establishment",False,,0.0,9999.0,True
places/ChIJExVrYnd7Vo8Ro29Acyp8dSI,PLANTA MECANO-MERIDA,20.9625901,-89.50634889999999,,"service,point_of_interest,establishment",False,,0.0,9999.0,True
places/ChIJaVxiqgN7Vo8RJEnJ84HiiR0,Azvindi ferroviario,20.964443,-89.50607459999999,,"playground,point_of_interest,establishment",False,,0.0,9999.0,True
places/ChIJQWsPBvR7Vo8RXIDwx2jphtk,"Salón del Reino de los Testigos de Jehová, Hacienda Oncán",20.9640341,-89.48475979999999,,"association_or_organization,point_of_interest,establishment",False,,0.0,9999.0,True
places/ChIJ3-PzISJ7Vo8RE6V4JWMmfEc,"JARDIN DE NIÑOS ""LORENZO DE ZAVALA""",20.9649476,-89.48335259999999,,"school,educational_institution,point_of_interest,establishment",False,,0.0,9999.0,True
places/ChIJLx5i-o97Vo8RaTe1o4nT6pY,Tienda Noemi,20.9624404,-89.4831362,,"grocery_store,food_store,food,store,point_of_interest,establishment",False,,0.0,9999.0,True
places/ChIJhRYgnpl7Vo8RGsQbtIaYrpo,Principal Park,20.966044399999998,-89.48252409999999,,"city_park,park,point_of_interest,establishment",False,,0.0,9999.0,True
places/ChIJV6tE2t57Vo8RB1gvp80i424,"ESCUELA PRIMARIA ""20 DE NOVIEMBRE""",20.9654571,-89.4832788,,"primary_school,school,educational_institution,point_of_interest,establishment",False,,0.0,9999.0,True
places/ChIJI3B30J17Vo8RiD6WOd9MsCQ,Cancha de Básquetbol,20.966097899999998,-89.4824091,,"athletic_field,sports_activity_location,point_of_interest,establishment",False,,0.0,9999.0,True
places/ChIJGQ5qmKV7Vo8RBGujkgmVejA,Campo de Fútbol Oncan,20.963181199999998,-89.4842937,,"sports_club,association_or_organization,point_of_interest,establishment",False,,0.0,9999.0,True
places/ChIJQ4FsWI57Vo8ReyEMqWWZSbU,Iglesia Católica Oncán,20.964365,-89.48339340000001,,"church,place_of_worship,association_or_organization,point_of_interest,establishment",False,,0.0,9999.0,True
places/ChIJASOhJZB7Vo8RyXBg4qC0o30,Tienda Tony,20.9639791,-89.4841213,,"store,point_of_interest,establishment",False,,0.0,9999.0,True
places/ChIJOZNlKAx7Vo8RbkpWBKC_bNA,Cementerio Municipal de Oncán,20.9663734,-89.4881206,,"cemetery,service,point_of_interest,establishment",False,,0.0,9999.0,True
places/ChIJL2lzoZt7Vo8RYqCBn1KJ0go,Prefamovil,20.9638125,-89.5050126,,"general_contractor,service,point_of_interest,establishment",False,,0.0,9999.0,True
places/ChIJoRbfOiJ7Vo8Rl9peG9osKws,JAPAY Pozo 15 Captacion,20.9712274,-89.4981573,,"corporate_office,point_of_interest,establishment",False,,0.0,9999.0,True
places/ChIJFzl1lqB7Vo8RiBboxmQ4WBI,JAPAY Pozo 17 Captación,20.971850999999997,-89.49342290000001,,"corporate_office,point_of_interest,establishment",False,,0.0,9999.0,True
places/ChIJ87c2Uot7Vo8RHylQIMcwFfg,MAYUCSA,20.9741695,-89.4785229,,"store,point_of_interest,establishment",False,MATERIALES DE YUCATAN,42.85714285714286,14.2,True
places/ChIJZVlkawV7Vo8RZgmJ_pRp1L0,Maya Gas (Planta de distribución),20.9748883,-89.4760177,,"supplier,service,point_of_interest,establishment",False,,0.0,9999.0,True
places/ChIJOTopIQB7Vo8RQ7F13CmwAUA,CYD CONCRETOS,20.974042600000004,-89.4802033,,"point_of_interest,establishment",False,,0.0,9999.0,True
places/ChIJ6y3vLQB9Vo8RDgTFHhSGmfA,Estación de servicio tixpehual S.A,20.9759221,-89.469442,,"gas_station,service,point_of_interest,establishment",False,,0.0,9999.0,True
places/ChIJFQXeDQB9Vo8RsgvWL8ywSNc,Pemex,20.9758212,-89.46946609999999,,"gas_station,service,point_of_interest,establishment",False,,0.0,9999.0,True
places/ChIJizsyGwB9Vo8RjY74OZRDP50,Ruta aguadas de Oncan,20.956170900000004,-89.4612002,,"hiking_area,sports_activity_location,point_of_interest,establishment",False,,0.0,9999.0,True
places/ChIJpcU1HAB9Vo8R55ToUs7cSGo,Zona Arqueológica de Oncan,20.9616772,-89.4732178,,"hiking_area,sports_activity_location,point_of_interest,establishment",False,,0.0,9999.0,True
places/ChIJ6Zi0dgB7Vo8RJ5YJAjj4q6s,Casa de ramses,20.961967299999998,-89.4822198,,"condominium_complex,service,point_of_interest,establishment",False,,0.0,9999.0,True
places/ChIJZSP45UZ7Vo8R_Ew-nKnpVpM,VENTA DE LOTES INDUSTRIALES - Kaizen Parque Industrial Mérida,20.9741867,-89.478034,,"point_of_interest,establishment",False,,0.0,9999.0,True
places/ChIJ37xdwYcMVo8R3BSORZutD64,Universidad Politécnica de Yucatán,20.988838100000002,-89.7373046,,"university,educational_institution,point_of_interest,establishment",False,,0.0,9999.0,True
places/ChIJNQe7socMVo8RNlMICaiTOnw,"ENES Unidad Mérida, UNAM",20.9881155,-89.73492499999999,,"university,educational_institution,point_of_interest,establishment",False,,0.0,9999.0,True
places/ChIJCZTCFlANVo8RTN6TOsnWDpU,Residencial Punto Maya,20.9898875,-89.73127009999999,,"service,point_of_interest,establishment",False,,0.0,9999.0,True
places/ChIJLzfC6ZNzVo8RJAYiQCAYgQQ,Lyncott Merida,20.985045799999998,-89.7329925,,"grocery_store,food_store,food,store,point_of_interest,establishment",False,,0.0,9999.0,True
places/ChIJvSmv_Y9xVo8RYg2gN-MrNXM,TNbuilding Mérida,20.9848574,-89.7350014,,"supplier,point_of_interest,establishment",False,,0.0,9999.0,True
places/ChIJpVWF_UJzVo8R8E3Dh0i3lAg,Forlighting de México - CEDIS Mérida.,20.986425099999998,-89.7318744,,"home_improvement_store,home_goods_store,manufacturer,store,point_of_interest,establishment",False,,0.0,9999.0,True
places/ChIJiXC8LBENVo8Rmm4r1CDLUMM,Comisaría de Chalmuch,20.9726963,-89.7289564,,"point_of_interest,government_office,establishment",False,,0.0,9999.0,True
places/ChIJWdDpCtwNVo8R1FTCfrhlYUw,Talleres Lubradi,20.972568,-89.72532679999999,,"car_repair,food,supplier,service,point_of_interest,establishment",False,,0.0,9999.0,True
places/ChIJx59L0nMNVo8RsSABwn-0maI,Quinta LOVA,20.971695,-89.7233514,,"event_venue,point_of_interest,establishment",False,,0.0,9999.0,True
places/ChIJzY1PIAANVo8R5Pb_WmQ-7IE,Estacionamiento UPY,20.9876068,-89.73661039999999,,"parking_lot,parking,transportation_service,service,point_of_interest,establishment",False,,0.0,9999.0,True
places/ChIJ25Mu474NVo8R8ojjQEL0rMg,"Instituto de Investigaciones en Matemáticas Aplicadas y en Sistemas IIMAS UNAM, Yucatán",20.9874758,-89.73557629999999,,"research_institute,point_of_interest,establishment",False,,0.0,9999.0,True
places/ChIJz3fuuL8NVo8Rfwqr6cVq2wU,RENTA CASA POR DÍA CAUCEL,20.9887153,-89.728202,,"lodging,service,point_of_interest,establishment",False,,0.0,9999.0,True
places/ChIJh8OnALANVo8RunBX5J3BTX0,Sani Meri,20.9744492,-89.7275112,,"public_bathroom,point_of_interest,establishment",False,,0.0,9999.0,True
places/ChIJH76FPXENVo8RFaFoxVsCCwA,Instituto de Ecología UNAM - Unidad Mérida,20.987492,-89.735474,,"research_institute,point_of_interest,establishment",False,,0.0,9999.0,True
places/ChIJU-0LCAANVo8RL6aNwKPtw8s,Letras de chalmuch,20.9726258,-89.7276639,,"park,point_of_interest,establishment",False,,0.0,9999.0,True
places/ChIJsaJlyrINVo8RKL-cAy-eVbs,Taller mecánico Carambas,20.971767999999997,-89.7236148,,"car_repair,service,point_of_interest,establishment",False,,0.0,9999.0,True
