place_id,nombre,lat,lng,direccion,tipos,match_denue,nombre_denue,razon_denue,actividad_denue,colonia_denue,fuzzy_score,distancia_m,es_informal,decision_fuente,cadena_detectada,razon_decision,fuente
csv_6,Casa Reyna,20.8688759,-89.75027349999999,"C. 35C 135, Umán, 97390 Umán, Yuc., Mexico","point_of_interest,service,establishment",False,ESTETICA MARY,,Salones y clínicas de belleza y peluquerías,MANZANA 002,58.8,89.5,True,informal,,Sin match en ninguna capa,google_maps
csv_9,Pochoclo Cooking,20.8705017,-89.7503265,"97390 Bosques de, Umán, 97390 Umán, Yuc., Mexico","store,point_of_interest,establishment",False,MOTOSERVICIO B&G,,Reparación y mantenimiento de motocicletas,MANZANA 002,40.0,65.5,True,informal,,Sin match en ninguna capa,google_maps
csv_10,YULINEY(Deliciosas fresas)🍓😍,20.8714549,-89.7515755,"C. 33 B 162, entre 22 y 24, Umán, 97390 Umán, Yuc., Mexico","ice_cream_shop,dessert_shop,confectionery,point_of_interest,food_store,food,store,establishment",False,TALLER DE TAPICERIA SIN NOMBRE,,Reparación de tapicería de muebles para el hogar,MANZANA 0066,44.9,57.2,True,informal,,Sin match en ninguna capa,google_maps
csv_11,BBG Comunicación,20.8712167,-89.7501542,"Esquina con 33-B, por 33B1 y 33B2, C. 35 S/N, Umán, 97390 Umán, Yuc., Mexico","point_of_interest,establishment",False,MOTOSERVICIO B&G,,Reparación y mantenimiento de motocicletas,MANZANA 002,50.0,61.8,True,informal,,Sin match en ninguna capa,google_maps
csv_14,MONKEY FILMS,20.871466,-89.7514885,"C. 33 B 160, Umán, 97390 Umán, Yuc., Mexico","point_of_interest,service,establishment",False,HERRERIA AUTOMOTRIZ SIN NOMBRE,,Reparación mecánica en general de automóviles y camiones,MANZANA 0066,33.3,67.4,True,informal,,Sin match en ninguna capa,google_maps
csv_17,Frutería LA MEJOR,20.8694057,-89.7512046,"C. 35D 151, Umán, 97390 Umán, Yuc., Mexico","butcher_shop,point_of_interest,service,food_store,food,manufacturer,store,establishment",False,ESTETICA MARY,,Salones y clínicas de belleza y peluquerías,MANZANA 002,58.3,98.0,True,informal,,Sin match en ninguna capa,google_maps
csv_18,STUDIO ANDROMEDA,20.8711799,-89.750878,"Itzincab, 97390 Umán, Yuc., Mexico","point_of_interest,establishment",False,YUX SIX EL TREBOL (UMAN),CONTROLADORA DE NEGOCIOS COMERCIALES SA DE CV,Comercio al por menor de cerveza,UMAN,45.2,76.1,True,informal,,Sin match en ninguna capa,google_maps
csv_20,GIOTEX Sustainable Textiles,20.8693492,-89.7470671,"Calle 18 No 163 Carretera Uman-uxmal, Umán, 97390 Umán, Yuc., Mexico","point_of_interest,manufacturer,establishment",False,TERMO PUERTAS DEL SURESTE,TERMO PUERTAS DEL SURESTE SA DE CV,Fabricación de productos de herrería,MANZANA 30,43.8,83.8,True,informal,,Sin match en ninguna capa,google_maps
csv_22,AYAMSA Aceros y Acanalados Monterrey,20.8699389,-89.74621830000001,"Calle 18, Uxmal 163-Int. 2, Umán, 97390 Umán, Yuc., Mexico","corporate_office,point_of_interest,establishment",False,TERMO PUERTAS DEL SURESTE,TERMO PUERTAS DEL SURESTE SA DE CV,Fabricación de productos de herrería,MANZANA 30,42.9,30.7,True,informal,,Sin match en ninguna capa,google_maps
csv_29,asmaY,20.869761000000004,-89.74635889999999,"Calle 18, Uxmal 163-Int. 2, Umán, 97390 Umán, Yuc., Mexico","manufacturer,point_of_interest,establishment",False,TERMO PUERTAS DEL SURESTE,TERMO PUERTAS DEL SURESTE SA DE CV,Fabricación de productos de herrería,MANZANA 30,40.0,21.7,True,informal,,Sin match en ninguna capa,google_maps
csv_30,Rewear,20.8694248,-89.7466949,"Calle 18 No 163 Int. 2 Carretera Uman - Uxmal, Umán, 97390 Umán, Yuc., Mexico","clothing_store,wholesaler,point_of_interest,manufacturer,store,establishment",False,TERMO PUERTAS DEL SURESTE,TERMO PUERTAS DEL SURESTE SA DE CV,Fabricación de productos de herrería,MANZANA 30,54.5,55.7,True,informal,,Sin match en ninguna capa,google_maps
csv_31,Gina S’ Nails,20.8716707,-89.74932109999999,"C. 35 A, Camino Real Privada, 97390 Umán, Yuc., Mexico","beauty_salon,point_of_interest,service,store,establishment",False,GIOTEX,GIOTEX SA DE CV,Preparación e hilado de fibras blandas naturales,UMAN,50.0,33.6,True,informal,,Sin match en ninguna capa,google_maps
csv_33,Gatos hidráulicos,20.8706228,-89.74444779999999,"C. 16 184, Umán, 97390 Umán, Yuc., Mexico","car_repair,point_of_interest,service,establishment",False,TALLER AUTOMOTRIZ SIN NOMBRE,,Reparación mecánica en general de automóviles y camiones,MANZANA 29,35.7,16.9,True,informal,,Sin match en ninguna capa,google_maps
csv_34,Ronin Sushi Umán,20.8723167,-89.74413799999999,"C. 21 87a, Umán, 97390 Umán, Yuc., Mexico","grocery_store,point_of_interest,food_store,food,store,establishment",False,FRUTERIA SIN NOMBRE,,Comercio al por menor de frutas y verduras frescas,MANZANA 17,46.7,82.4,True,informal,,Sin match en ninguna capa,google_maps
csv_37,Carpinteria Gabriel Tinal,20.8683861,-89.7430965,"97390, C. 16 580, Umán, 97390 Umán, Yuc., Mexico","point_of_interest,service,manufacturer,establishment",False,,,,,0.0,9999.0,True,informal,,Sin match en ninguna capa,google_maps
csv_38,AUTOSERVICIO CONZALEZ,20.8706571,-89.7435096,"C. 14 1365, Umán, 97390 Umán, Yuc., Mexico","grocery_store,point_of_interest,food_store,food,store,establishment",False,EL SENDAVITO,,"Bares, cantinas y similares",MANZANA 29,55.6,78.5,True,informal,,Sin match en ninguna capa,google_maps
csv_41,EL SAZÓN DE LAS HERMANAS,20.8722709,-89.743997,"33, x 14 y 16, Santa barbara, 97390 Umán, Yuc., Mexico","meal_takeaway,restaurant,point_of_interest,food,establishment",False,VENTA DE EMPANADAS SIN NOMBRE,,Restaurantes con servicio de preparación de antojitos,MANZANA 18,57.1,4.9,True,informal,,Sin match en ninguna capa,google_maps
csv_46,HIELERIA LOS ANGELITOS,20.8722415,-89.7426269,"Umán, 97390 Uman, Yucatan, Mexico","point_of_interest,supplier,manufacturer,establishment",False,TAQUERIA EL OLAN,,Restaurantes con servicio de preparación de tacos y tortas,MANZANA 17,58.3,61.3,True,informal,,Sin match en ninguna capa,google_maps
csv_50,Servicio Técnico GONZALÉZ.,20.8701853,-89.7399604,"C. 10 382, entre 33 y 35, Umán, 97390 Umán, Yuc., Mexico","wholesaler,point_of_interest,establishment",False,TENDEJON JOSE,,"Comercio al por menor en tiendas de abarrotes, ultramarinos y misceláneas",SAN FELIPE 2,46.2,45.3,True,informal,,Sin match en ninguna capa,google_maps
csv_52,BARBER SHARK,20.8708243,-89.74000029999999,"C. 10 313, Umán, 97390 Umán, Yuc., Mexico","barber_shop,hair_care,health,point_of_interest,service,establishment",False,CARPINTERIA MARTIN,,"Fabricación de muebles, excepto cocinas integrales, muebles modulares de baño y muebles de oficina y estantería",SAN FELIPE 2,46.7,95.0,True,informal,,Sin match en ninguna capa,google_maps
csv_59,Bolsas son viejito,20.870752,-89.73858899999999,"V7C6+4V, Umán, 97390 Umán, Yuc., Mexico","market,point_of_interest,establishment",False,SALA DE FIESTA SAN FELIPE,,Alquiler sin intermediación de salones para fiestas y convenciones,SAN FELIPE 2,50.0,17.4,True,informal,,Sin match en ninguna capa,google_maps
csv_60,Six Marinos,20.8708565,-89.7375565,"C. 35 82, Umán, 97390 Umán, Yuc., Mexico","liquor_store,point_of_interest,store,establishment",False,PANADERIA SAN CARLOS,,Panificación tradicional,SAN FELIPE 2,57.1,65.0,True,informal,,Sin match en ninguna capa,google_maps
csv_61,C.H technology,20.8711354,-89.7389802,"33 10 8, Umán, 97390 Umán, Yuc., Mexico","point_of_interest,establishment",False,PANADERIA SAN CARLOS,,Panificación tradicional,SAN FELIPE 2,40.0,86.4,True,informal,,Sin match en ninguna capa,google_maps
csv_63,WOODSERVICES,20.8710372,-89.73712230000001,"0 4, Umán, 97390 Umán, Yuc., Mexico","general_contractor,point_of_interest,service,establishment",False,,,,,0.0,9999.0,True,informal,,Sin match en ninguna capa,google_maps
csv_65,Bolsas uman,20.8707367,-89.7385022,"V7C6+4V, Umán, 97390 Umán, Yuc., Mexico","gift_shop,point_of_interest,store,establishment",False,CAPILLA SAN JUDAS TADEO,ARQUIDIOCESIS DE YUCATAN AR,Asociaciones y organizaciones religiosas,SAN FELIPE 2,54.5,70.4,True,informal,,Sin match en ninguna capa,google_maps
csv_66,"Bolsas artesanales ""los abuelitos""",20.870529,-89.73872170000001,"V7C6+4V, Umán, 97390 Uman, Yucatan, Mexico","point_of_interest,establishment",False,PANADERIA SAN CARLOS,,Panificación tradicional,SAN FELIPE 2,55.6,72.6,True,informal,,Sin match en ninguna capa,google_maps
csv_67,Expendio Aurora,20.8698946,-89.7369952,"Calle 4 & Calle 35 A, Umán, 97390 Umán, Yuc., Mexico","wholesaler,point_of_interest,establishment",False,SUBLITEX ARTICULOS PERSONALIZADOS SUBLIMACION,,Impresión de formas continuas y otros impresos,SAN FELIPE 2,40.0,14.1,True,informal,,Sin match en ninguna capa,google_maps
csv_68,Kitin-Che,20.8715036,-89.7364707,"C. 35 x 2 y 4, Umán, 97390 Umán, Yuc., Mexico","amusement_center,point_of_interest,establishment",False,CARPINTERIA SIN NOMBRE,,"Fabricación de muebles, excepto cocinas integrales, muebles modulares de baño y muebles de oficina y estantería",SAN FELIPE 2,44.4,76.2,True,informal,,Sin match en ninguna capa,google_maps
csv_72,claribel quintal,20.8719067,-89.73697779999999,"C. 4, Umán, 97390 Umán, Yuc., Mexico","beauty_salon,service,point_of_interest,establishment",False,LOCAL DE FIESTAS SIN NOMBRE,,Alquiler sin intermediación de salones para fiestas y convenciones,SAN FELIPE 2,50.0,23.0,True,informal,,Sin match en ninguna capa,google_maps
csv_77,ENCIERRO ILCO CONSTRUCTORES,20.8703729,-89.7325718,"Unnamed Road, Umán, 97390 Umán, Yuc., Mexico","corporate_office,point_of_interest,establishment",False,,,,,0.0,9999.0,True,informal,,Sin match en ninguna capa,google_maps
csv_79,Encierro - Grupo Canteras Peninsulares,20.8705138,-89.73264979999999,"Umán, 97390 Umán, Yuc., Mexico","storage,point_of_interest,establishment",False,,,,,0.0,9999.0,True,informal,,Sin match en ninguna capa,google_maps
csv_80,La cima del mayauman,20.8684375,-89.73056249999999,"V799+9Q, 97390 Uman, Yucatan, Mexico","hiking_area,sports_activity_location,point_of_interest,establishment",False,,,,,0.0,9999.0,True,informal,,Sin match en ninguna capa,google_maps
csv_81,TSURU,20.8714585,-89.7264766,"97390 Uman, Yucatan, Mexico","car_repair,point_of_interest,service,establishment",False,,,,,0.0,9999.0,True,informal,,Sin match en ninguna capa,google_maps
csv_82,Autotransporte y Taller Saeta,20.870822900000004,-89.7246267,"Carretera Uman Tebec, 51 Z2, 97394 Umán, Yuc., Mexico","car_repair,point_of_interest,service,establishment",False,,,,,0.0,9999.0,True,informal,,Sin match en ninguna capa,google_maps
csv_83,TRANSPORTES MENDOZA,20.8703172,-89.72397769999999,"Merida-Uman, Centro, 97390 Mérida, Yuc., Mexico","transportation_service,point_of_interest,establishment",False,,,,,0.0,9999.0,True,informal,,Sin match en ninguna capa,google_maps
csv_84,NGC TALLERES ( CHEYENE),20.8686755,-89.7222398,"Unnamed Road Carretera Uman-tebec a 100 mts antes de puente, 97390 Umán, Yuc., Mexico","car_repair,point_of_interest,service,establishment",False,,,,,0.0,9999.0,True,informal,,Sin match en ninguna capa,google_maps
csv_86,JJ Forza Semirremolques (Yucatán),20.868167,-89.7223337,"C. 21, Umán, 97394 Umán, Yuc., Mexico","point_of_interest,manufacturer,establishment",False,,,,,0.0,9999.0,True,informal,,Sin match en ninguna capa,google_maps
csv_90,Consultorio Dental,20.8684307,-89.66110619999999,"C. 19, 97315 Dzununcán, Yuc., Mexico","health,point_of_interest,establishment",False,,,,,0.0,9999.0,True,informal,,Sin match en ninguna capa,google_maps
csv_91,Bendito sabor burguer,20.868352,-89.6607033,"C. 19 24, 97315 Dzununcán, Yuc., Mexico","hamburger_restaurant,american_restaurant,restaurant,point_of_interest,food,establishment",False,,,,,0.0,9999.0,True,informal,,Sin match en ninguna capa,google_maps
csv_92,Prettylash,20.8680795,-89.6600897,"97390 Comisaría dzununcan, 97390 Mérida, Yuc., Mexico","beauty_salon,service,point_of_interest,establishment",False,,,,,0.0,9999.0,True,informal,,Sin match en ninguna capa,google_maps
csv_93,Mosaicos Dzununcan Fabrica,20.8708457,-89.65426629999999,"Calle 86, Km 2.5 entre periférico Sur y Dzununcan Sin Nombre, 97315 Mérida, Yuc., Mexico","building_materials_store,point_of_interest,store,establishment",False,,,,,0.0,9999.0,True,informal,,Sin match en ninguna capa,google_maps
csv_94,Materiales Pineda,20.8706926,-89.65464229999999,"V8CW+74, 97315 Dzununcán, Yuc., Mexico","building_materials_store,point_of_interest,store,establishment",False,,,,,0.0,9999.0,True,informal,,Sin match en ninguna capa,google_maps
csv_96,Llantera MC,20.8712951,-89.65460859999999,"C. 86, 97315 San Antonio, Yuc., Mexico","car_repair,point_of_interest,service,establishment",False,,,,,0.0,9999.0,True,informal,,Sin match en ninguna capa,google_maps
csv_97,Vivero periférico,20.8716732,-89.6544916,"C. 86, 97315 San Antonio, Yuc., Mexico","point_of_interest,establishment",False,,,,,0.0,9999.0,True,informal,,Sin match en ninguna capa,google_maps
csv_98,ACERUNION DZUNUNCAN,20.8725356,-89.6540441,"97315 Merida, Yucatan, Mexico","wholesaler,point_of_interest,establishment",False,,,,,0.0,9999.0,True,informal,,Sin match en ninguna capa,google_maps
csv_100,Martillos Hidráulicos de la Península MHP,20.8683002,-89.6505176,"C. 19, 97315 Dzununcán, Yuc., Mexico","car_repair,point_of_interest,service,establishment",False,,,,,0.0,9999.0,True,informal,,Sin match en ninguna capa,google_maps
csv_103,Local los Dorantes,20.8701097,-89.6414594,"97315 Merida, Yucatan, Mexico","swimming_pool,sports_activity_location,point_of_interest,establishment",False,,,,,0.0,9999.0,True,informal,,Sin match en ninguna capa,google_maps
csv_104,Vivero los narcisos,20.8706805,-89.6264333,"Calle 233 A x 50 y 50A Xmatkuil, 97285 Mérida, Yuc., Mexico","farm,point_of_interest,wholesaler,service,establishment",False,,,,,0.0,9999.0,True,informal,,Sin match en ninguna capa,google_maps
csv_105,Casa Fernanda,20.8687858,-89.6273392,"V99F+G3, 97315 Xmatkuil, Yuc., Mexico","lodging,point_of_interest,service,establishment",False,,,,,0.0,9999.0,True,informal,,Sin match en ninguna capa,google_maps
csv_106,Tarimera Vázquez,20.8716962,-89.6270217,"Calle 50 ixmatkuil, entre 233, 97315 Mérida, Yuc., Mexico","point_of_interest,service,establishment",False,,,,,0.0,9999.0,True,informal,,Sin match en ninguna capa,google_maps
csv_108,Grupo Armar (bodega),20.869667,-89.625526,"C. 50, Plan de Ayala ÌII, 97315 Xmatkuil, Yuc., Mexico","winery,farm,point_of_interest,service,food,manufacturer,establishment",False,,,,,0.0,9999.0,True,informal,,Sin match en ninguna capa,google_maps
csv_109,Tendejon los tres hermanos,20.8713978,-89.62595189999999,"C. 50 943, Plan de Ayala ÌII, 97315 Xmatkuil, Yuc., Mexico","store,point_of_interest,establishment",False,,,,,0.0,9999.0,True,informal,,Sin match en ninguna capa,google_maps
csv_110,Car wash aslam,20.8719599,-89.6259068,"Xmatkuil, Supermanzana Tren maya, 97315 Mérida, Yuc., Mexico","car_wash,point_of_interest,service,establishment",False,,,,,0.0,9999.0,True,informal,,Sin match en ninguna capa,google_maps
csv_111,Vivero Xmatkuil,20.8708897,-89.62543959999999,"Calle 50 #25508 Xmatkuil, 97315 Mérida, Yuc., Mexico","farm,wholesaler,point_of_interest,service,establishment",False,,,,,0.0,9999.0,True,informal,,Sin match en ninguna capa,google_maps
csv_112,Mini Súper Huli,20.8703603,-89.62532139999999,"C. 50, Plan de Ayala ÌII, 97315 Xmatkuil, Yuc., Mexico","grocery_store,point_of_interest,food_store,food,store,establishment",False,,,,,0.0,9999.0,True,informal,,Sin match en ninguna capa,google_maps
csv_114,Terreno Lic,20.8713744,-89.625975,"C. 50 943, Plan de Ayala ÌII, 97315 San Antonio, Yuc., Mexico","point_of_interest,service,establishment",False,,,,,0.0,9999.0,True,informal,,Sin match en ninguna capa,google_maps
csv_118,El Príncipe Tutul Xiu suc. Xmatkuil,20.870818,-89.62571480000001,"C. 50 943, Plan de Ayala ÌII, 97315 Xmatkuil, Yuc., Mexico","restaurant,point_of_interest,food,establishment",False,,,,,0.0,9999.0,True,informal,,Sin match en ninguna capa,google_maps
csv_121,Unidad Fructícola Diversificada,20.867943,-89.620615,"V99H+5Q, 97315 Xmatkuil, Yuc., Mexico","community_center,event_venue,point_of_interest,service,establishment",False,,,,,0.0,9999.0,True,informal,,Sin match en ninguna capa,google_maps
csv_123,Gotcha War Ops.,20.8686235,-89.59473500000001,"Carretera 42 sur A 500m de la desviación timuvuy-molas, 97139 Mérida, Yuc., Mexico","paintball_center,athletic_field,sports_complex,sports_activity_location,point_of_interest,establishment",False,,,,,0.0,9999.0,True,informal,,Sin match en ninguna capa,google_maps
csv_126,"Herreria ""Nelvi Cherrez Pat""",20.8684057,-89.5941567,"42 SUR LT124 CAR TAHDZIB MOLAS CARRET. TAHDZIBICHEN MOLAS, 97390 Mérida, Yuc., Mexico","point_of_interest,service,establishment",False,,,,,0.0,9999.0,True,informal,,Sin match en ninguna capa,google_maps
csv_127,La Cabaña Del Tio Gato.,20.8685245,-89.5947199,"97139 Merida, Yucatan, Mexico","banquet_hall,event_venue,point_of_interest,establishment",False,,,,,0.0,9999.0,True,informal,,Sin match en ninguna capa,google_maps
csv_133,"ZENTAUR venta, renta y transporte",20.8703929,-89.5861724,"97315 Merida, Yucatan, Mexico","point_of_interest,establishment",False,,,,,0.0,9999.0,True,informal,,Sin match en ninguna capa,google_maps
csv_135,El bosque de los bechitos,20.8705184,-89.5855503,"A unos metros atrás del rancho Rejon tierra sagrada San Pedro chimay, 97370 Mérida, Yuc., Mexico","event_venue,point_of_interest,service,establishment",False,,,,,0.0,9999.0,True,informal,,Sin match en ninguna capa,google_maps
csv_136,Rancho Rejon Tierra Sagrada,20.8702904,-89.58459289999999,"Mérida - Timucuy, 97315 San Pedro Chimay, Yuc., Mexico","grocery_store,point_of_interest,food_store,food,store,establishment",False,,,,,0.0,9999.0,True,informal,,Sin match en ninguna capa,google_maps
csv_142,"La Avenida, Bebidas y Mariscos",20.8690482,-89.5823362,"C. 15 entre 24, 97310 Mérida, Yuc., Mexico","seafood_restaurant,restaurant,food,point_of_interest,establishment",False,,,,,0.0,9999.0,True,informal,,Sin match en ninguna capa,google_maps
csv_143,Tendejon el divino Niño,20.8682,-89.5805,"Mérida - Timucuy b-1952, 97315 San Antonio, Yuc., Mexico","store,point_of_interest,establishment",False,,,,,0.0,9999.0,True,informal,,Sin match en ninguna capa,google_maps
csv_144,Chatarra y aluminio,20.8715016,-89.5800982,"VCCC+G4, 97315 San Pedro Chimay, Yuc., Mexico","manufacturer,point_of_interest,establishment",False,,,,,0.0,9999.0,True,informal,,Sin match en ninguna capa,google_maps
csv_146,"Tienda ""Aneliz""",20.8678028,-89.57875949999999,"97315 San Pedro Chimay, Yuc., Mexico","store,point_of_interest,establishment",False,,,,,0.0,9999.0,True,informal,,Sin match en ninguna capa,google_maps
csv_152,"TIENDA LA ""Y"" GRIEGA",20.8678058,-89.5779622,"97315 San Pedro Chimay, Yuc., Mexico","general_store,point_of_interest,food_store,food,store,establishment",False,,,,,0.0,9999.0,True,informal,,Sin match en ninguna capa,google_maps
csv_153,"Agua Purificada & tienda “La Fe""",20.8689014,-89.57354339999999,"97315 Merida, Yucatan, Mexico","general_store,point_of_interest,food_store,food,store,establishment",False,,,,,0.0,9999.0,True,informal,,Sin match en ninguna capa,google_maps
csv_156,"Tendejon ""La Fe""",20.8689048,-89.5735227,"97315 Merida, Yucatan, Mexico","convenience_store,point_of_interest,food_store,food,store,establishment",False,,,,,0.0,9999.0,True,informal,,Sin match en ninguna capa,google_maps
csv_157,Comida “ Co’ox ja’ana”,20.869007,-89.57173809999999,"VC9H+QH, 97315 San Pedro Chimay, Yuc., Mexico","meal_delivery,food_delivery,point_of_interest,food,establishment",False,,,,,0.0,9999.0,True,informal,,Sin match en ninguna capa,google_maps
csv_160,Venta de lotes,20.8695975,-89.57005799999999,"97315 San Pedro Chimay, Yuc., Mexico","point_of_interest,service,establishment",False,,,,,0.0,9999.0,True,informal,,Sin match en ninguna capa,google_maps
csv_161,Planta de asfalto mulsay,20.868064,-89.5592326,"97315 Merida, Yucatan, Mexico","general_contractor,point_of_interest,service,establishment",False,,,,,0.0,9999.0,True,informal,,Sin match en ninguna capa,google_maps
csv_162,Rancho Ovino San Miguel Maracuyá,20.8722118,-89.540887,"Timucuy Municipality, 97378 Yucatan, Mexico","ranch,farm,point_of_interest,service,food,manufacturer,establishment",False,,,,,0.0,9999.0,True,informal,,Sin match en ninguna capa,google_maps
csv_163,Upp. San Judas Tadeo,20.8694883,-89.53310669999999,"VF98+QQ, 97378 Subincancab, Yuc., Mexico","farm,point_of_interest,service,establishment",False,,,,,0.0,9999.0,True,informal,,Sin match en ninguna capa,google_maps
csv_164,TATTOOGRAFIA SUBIN INK,20.8682784,-89.5323323,"97000 Hacienda subincancab, 97378 Subincancab, Yuc., Mexico","body_art_service,point_of_interest,service,establishment",False,,,,,0.0,9999.0,True,informal,,Sin match en ninguna capa,google_maps
csv_167,Barber Shop Alpha,20.8682904,-89.5329745,"20.8684740 89, 97378 Subincancab, Yuc., Mexico","barber_shop,hair_care,health,point_of_interest,service,establishment",False,,,,,0.0,9999.0,True,informal,,Sin match en ninguna capa,google_maps
csv_168,Taller de motos El cheel,20.8697601,-89.5324242,"Calle 1 x 2 y 4 sin numero, Supermanzana Loc, 97378 Subincancab, Yuc., Mexico","car_repair,point_of_interest,service,establishment",False,,,,,0.0,9999.0,True,informal,,Sin match en ninguna capa,google_maps
csv_169,Tienda Guayaberas Casanova,20.8700063,-89.5305115,"97378 Subincancab, Yuc., Mexico","clothing_store,point_of_interest,store,establishment",False,CVF LUPITA SUBINKANKAB,CONTROLADORA DE NEGOCIOS COMERCIALES SA DE CV,Comercio al por menor de cerveza,SUBINCANCAB,40.0,77.1,True,informal,,Sin match en ninguna capa,google_maps
csv_170,El Compa Canche,20.868656,-89.5306049,"97378 Subincancab, Yucatan, Mexico","restaurant,point_of_interest,food,establishment",False,,,,,0.0,9999.0,True,informal,,Sin match en ninguna capa,google_maps
csv_171,EL AMIGO BRUJO,20.869252,-89.5319324,"97000, Hacienda, 97378 Subincancab, Yuc., Mexico","point_of_interest,service,food,establishment",False,,,,,0.0,9999.0,True,informal,,Sin match en ninguna capa,google_maps
csv_173,Tienda Nievez,20.8689472,-89.5307918,"97378 Subincancab, Yuc., Mexico","grocery_store,point_of_interest,food_store,food,store,establishment",False,,,,,0.0,9999.0,True,informal,,Sin match en ninguna capa,google_maps
csv_174,Car Wash J.C.,20.8696808,-89.530418,"Calle 1 entre 6, 97378 Subincancab, Yuc., Mexico","car_wash,point_of_interest,service,establishment",False,,,,,0.0,9999.0,True,informal,,Sin match en ninguna capa,google_maps
csv_175,Los Confidentes de Chava,20.8707136,-89.5304369,"97378 Subincancab, Yuc., Mexico","event_venue,point_of_interest,service,establishment",False,CVF LUPITA SUBINKANKAB,CONTROLADORA DE NEGOCIOS COMERCIALES SA DE CV,Comercio al por menor de cerveza,SUBINCANCAB,37.0,9.4,True,informal,,Sin match en ninguna capa,google_maps
csv_176,Local Dolly,20.872098,-89.52926529999999,"97378 Timucuy, Yuc., Mexico","swimming_pool,sports_activity_location,point_of_interest,establishment",False,,,,,0.0,9999.0,True,informal,,Sin match en ninguna capa,google_maps
csv_179,Distribuidor STIHL Autorizado,20.873595400000003,-89.7517948,"Calle 31 236-C, Umán, 97390 Peto, Yuc., Mexico","hardware_store,point_of_interest,building_materials_store,store,establishment",False,QUIROPRACTICO,,Consultorios de quiropráctica del sector privado,MANZANA 21,46.2,61.8,True,informal,,Sin match en ninguna capa,google_maps
csv_185,K-risma Shop,20.8736009,-89.7513742,"Calle 31 entre 20 y 20a, La Trinchera, 97390 Umán, Yuc., Mexico","point_of_interest,store,establishment",False,TALLER DE HERRERIA LA HERRADURA,,Fabricación de productos de herrería,MANZANA 21,50.0,85.9,True,informal,,Sin match en ninguna capa,google_maps
csv_188,migo,20.8728705,-89.7497817,"C. 20-B S/N, Umán, 97390 Umán, Yuc., Mexico","point_of_interest,establishment",False,GIMNASIO MIXTO HERCULES,,Centros de acondicionamiento físico del sector privado,MANZANA 21,50.0,74.1,True,informal,,Sin match en ninguna capa,google_maps
csv_193,DASUR,20.8738317,-89.7471705,"C. 18 115 A, entre 29 Y 31, Umán, 97390 Umán, Yuc., Mexico","supplier,point_of_interest,food,establishment",False,CONSTRURAMA MARZA SUCURSAL UMAN,MARTINEZ ZAPATA SA DE CV,"Comercio al por mayor de cemento, tabique y grava",CENTRO,60.0,1.1,True,informal,,Sin match en ninguna capa,google_maps
csv_195,Zona Limbo,20.8732233,-89.7468628,"C. 18 x 31 y 33, Santa Bárbara, 97390 Umán, Yuc., Mexico","bar,point_of_interest,establishment",False,SAZON DOÑA CONCHI,,Restaurantes que preparan otro tipo de alimentos para llevar,13,55.6,98.6,True,informal,,Sin match en ninguna capa,google_maps
csv_202,LOS CEIBOS,20.8732053,-89.74185829999999,"Por 33 y 31, C. 12 156, Los Arcos, Umán, 97390 Umán, Yuc., Mexico","car_wash,point_of_interest,service,establishment",False,VENTA DE PANUCHOS,,Restaurantes con servicio de preparación de antojitos,SAN FELIPE,60.0,88.7,True,informal,,Sin match en ninguna capa,google_maps
csv_203,SHOP ALMOND,20.8723843,-89.74310009999999,"Esquina con Calle 12, C. 33 102, Umán, 97111 Umán, Yuc., Mexico","convenience_store,point_of_interest,food_store,food,store,establishment",False,TIENDA Y PANADERIA LOS ALMENDROS,,"Comercio al por menor en tiendas de abarrotes, ultramarinos y misceláneas",MANZANA 011,57.1,8.3,True,informal,,Sin match en ninguna capa,google_maps
csv_213,Estudio Cristian Chan,20.8742303,-89.7429634,"C 29 diagonal 116-x 14 y 12, col. Santa Bárbara, 97390 Umán, Yuc., Mexico","point_of_interest,service,establishment",False,IGLESIA BAUTISTA CRISTO ES LA UNICA ESPERANZA,CONVENCION REGIONAL BAUTISTA PENINSULAR AR,Asociaciones y organizaciones religiosas,MANZANA 005,52.4,80.6,True,informal,,Sin match en ninguna capa,google_maps
csv_216,Sala de fiesta FlorTun,20.8726325,-89.7417341,"C. 12 164, Umán, 97390 Umán, Yuc., Mexico","lounge_bar,night_club,bar,point_of_interest,establishment",False,TALLER DE TORNERIA DAVID HERRERA,,Maquinado de piezas metálicas para maquinaria y equipo en general,MANZANA 011,46.7,21.6,True,informal,,Sin match en ninguna capa,google_maps
csv_218,Tortilleria El Naranjito,20.8728504,-89.74356069999999,"Por Calle 31 y 33, C. 14 145, Umán, 97111 Umán, Yuc., Mexico","manufacturer,point_of_interest,food,establishment",False,TIENDA Y PANADERIA LOS ALMENDROS,,"Comercio al por menor en tiendas de abarrotes, ultramarinos y misceláneas",MANZANA 011,50.0,78.1,True,informal,,Sin match en ninguna capa,google_maps
csv_221,Clínica Tuz Montero,20.8735114,-89.7373058,"C. 29, Umán, 97390 Umán, Yuc., Mexico","physiotherapist,health,point_of_interest,establishment",False,IGLESIA DE CRISTO,IGLESIA DE CRISTO AR,Asociaciones y organizaciones religiosas,SAN FELIPE,43.5,72.2,True,informal,,Sin match en ninguna capa,google_maps
csv_222,Quiroadry,20.873833800000003,-89.7377375,"C. 6 186, Umán, 97390 Umán, Yuc., Mexico","chiropractor,health,point_of_interest,establishment",False,TALLER DE SOLDADURA SOSAYA SIN NOMBRE,,Fabricación de estructuras metálicas,SAN FELIPE 2,55.6,82.9,True,informal,,Sin match en ninguna capa,google_maps
csv_223,Tinta Eterna Tattoo,20.8743188,-89.73786439999999,"C. 6 85, Umán, 97390 Umán, Yuc., Mexico","art_studio,point_of_interest,establishment",False,TALLER DE SOLDADURA SOSAYA SIN NOMBRE,,Fabricación de estructuras metálicas,SAN FELIPE 2,42.9,31.1,True,informal,,Sin match en ninguna capa,google_maps
csv_227,Poxila uman,20.8745147,-89.73670109999999,"C. 4 s/n-por 8, Umán, 97390V7F7+R8 Poxilá, Yucatán Poxilá, Umán, 97390 Umán, Yuc., Mexico","point_of_interest,service,establishment",False,SALON DE EVENTOS LULI Y JESUS,,Alquiler sin intermediación de salones para fiestas y convenciones,SAN FELIPE,33.3,17.0,True,informal,,Sin match en ninguna capa,google_maps
csv_231,Pizzarriba UMÁN,20.8724069,-89.73522539999999,"Calle 31 82, Umán, 97390 Umán, Yuc., Mexico","pizza_restaurant,restaurant,point_of_interest,food,establishment",False,IGLESIA DE DIOS EVANGELIO COMPLETO ELIM,IGLESIA DE DIOS EN MEXICO EVANGELIO COMPLETO ELIM AR,Asociaciones y organizaciones religiosas,SAN FELIPE 2,40.0,96.7,True,informal,,Sin match en ninguna capa,google_maps
csv_233,RESTAURANT DIAZ,20.8750508,-89.73383,"C. 27 10-y 12, Umán, 97390 Umán, Yuc., Mexico","bar_and_grill,bar,restaurant,point_of_interest,food,establishment",False,TALLER INDUSTRIAL COB LARA SIN NOMBRE,,Reparación y mantenimiento de maquinaria y equipo industrial,SAN FELIPE,43.5,47.1,True,informal,,Sin match en ninguna capa,google_maps
csv_236,Agro-Calcio,20.8735201,-89.7277943,"calle 21, Merida-Uman, 97390 Tebec, Yuc., Mexico","grocery_store,food_store,food,store,point_of_interest,establishment",False,,,,,0.0,9999.0,True,informal,,Sin match en ninguna capa,google_maps
csv_238,TRACSUR,20.8740816,-89.7161136,"97390 Merida, Yucatan, Mexico","point_of_interest,store,establishment",False,,,,,0.0,9999.0,True,informal,,Sin match en ninguna capa,google_maps
csv_239,Comedor y Cafeteria Tatu,20.8738188,-89.7161997,"97390 Uman, Yucatan, Mexico","coffee_shop,cafe,point_of_interest,food_store,food,store,establishment",False,,,,,0.0,9999.0,True,informal,,Sin match en ninguna capa,google_maps
csv_240,"Llantera ""El Primo Jr""",20.874016,-89.71614079999999,"97390 Yucatan, Mexico","car_repair,point_of_interest,service,establishment",False,,,,,0.0,9999.0,True,informal,,Sin match en ninguna capa,google_maps
csv_241,Puerto Sanjose Guatemala,20.873343,-89.71599800000001,"Carr. Costera del Golfo 4070, 97390 Yuc., Mexico","corporate_office,point_of_interest,establishment",False,,,,,0.0,9999.0,True,informal,,Sin match en ninguna capa,google_maps
csv_242,COTRACTOSA Mérida,20.8746665,-89.7153757,"Km 154.3 Carretera Mérida-Campeche Tanil Yuc MX, 97390 Umán, Ticimul, Mexico","auto_parts_store,car_repair,point_of_interest,service,store,establishment",False,,,,,0.0,9999.0,True,informal,,Sin match en ninguna capa,google_maps
csv_245,ECISA Construcciones- Planta Mérida,20.8748879,-89.6840381,"97394 Uman, Yucatan, Mexico","point_of_interest,manufacturer,establishment",False,,,,,0.0,9999.0,True,informal,,Sin match en ninguna capa,google_maps
csv_247,Inicio de parcela,20.874503,-89.66315499999999,"V8FP+RP, 97315 Santa Cruz Palomeque, Yuc., Mexico","hiking_area,sports_activity_location,point_of_interest,establishment",False,,,,,0.0,9999.0,True,informal,,Sin match en ninguna capa,google_maps
csv_248,Rancho Don Chencho,20.872534100000003,-89.6582205,"97315 Merida, Yucatan, Mexico","lodging,point_of_interest,establishment",False,,,,,0.0,9999.0,True,informal,,Sin match en ninguna capa,google_maps
csv_249,Rancho La Revancha,20.8741377,-89.6579876,"C. 86, Santa Cruz Palomeque, 97315 Mérida, Yuc., Mexico","ranch,farm,point_of_interest,service,food,manufacturer,establishment",False,,,,,0.0,9999.0,True,informal,,Sin match en ninguna capa,google_maps
csv_251,Transportes Cueto S.A. de C.V. (Almacen Mérida),20.8746441,-89.6539123,"C. 86, 97315 Dzununcán, Yuc., Mexico","corporate_office,point_of_interest,establishment",False,,,,,0.0,9999.0,True,informal,,Sin match en ninguna capa,google_maps
csv_253,alba Petra,20.8744655,-89.62628769999999,"C. 50 4825, Sin Nombre de Col 19, 97315 Xmatkuil, Yuc., Mexico","general_contractor,point_of_interest,service,establishment",False,,,,,0.0,9999.0,True,informal,,Sin match en ninguna capa,google_maps
csv_254,"Casa De Empeños Y Compras "" Avenida Xmatkuil """,20.8726099,-89.6259817,"C. 50, Plan de Ayala ÌII, 97315 Xmatkuil, Yuc., Mexico","point_of_interest,store,establishment",False,,,,,0.0,9999.0,True,informal,,Sin match en ninguna capa,google_maps
csv_255,Antojitos Perlita,20.8728458,-89.6257866,"97315 Calle 50 X 241 Xmatkuil, 97315 Mérida, Yuc., Mexico","coffee_shop,cafe,point_of_interest,food_store,food,store,establishment",False,,,,,0.0,9999.0,True,informal,,Sin match en ninguna capa,google_maps
csv_257,Venado,20.872759,-89.613995,"V9FP+4C, 97315 Merida, Yucatan, Mexico","hiking_area,sports_activity_location,point_of_interest,establishment",False,,,,,0.0,9999.0,True,informal,,Sin match en ninguna capa,google_maps
csv_258,Rancho Aragón,20.8744482,-89.5974346,"97315 Merida, Yucatan, Mexico","farm,point_of_interest,service,establishment",False,,,,,0.0,9999.0,True,informal,,Sin match en ninguna capa,google_maps
csv_259,Tendejón Galdino,20.8749414,-89.59511429999999,"97315 Merida, Yucatan, Mexico","convenience_store,food_store,store,food,point_of_interest,establishment",False,,,,,0.0,9999.0,True,informal,,Sin match en ninguna capa,google_maps
csv_262,Maxima Proyectos,20.8731363,-89.5917188,"A San Pedro Chimay, 97315 San Antonio, Yuc., Mexico","point_of_interest,service,establishment",False,,,,,0.0,9999.0,True,informal,,Sin match en ninguna capa,google_maps
csv_264,Rancho Los Ceibos,20.8731363,-89.5917188,"97315 San Antonio, Yuc., Mexico","ranch,farm,point_of_interest,service,establishment",False,,,,,0.0,9999.0,True,informal,,Sin match en ninguna capa,google_maps
csv_268,Rancho La Dueña,20.8745983,-89.51069439999999,"Tepich, 97378 Yuc., Mexico","ranch,farm,point_of_interest,service,establishment",False,,,,,0.0,9999.0,True,informal,,Sin match en ninguna capa,google_maps
csv_289,MASUDA REFACCIONARIA,20.8771143,-89.74507679999999,"C. 27 101, Umán, 97390 Umán, Yuc., Mexico","manufacturer,point_of_interest,establishment",False,MADERERIA Y CARPINTERIA ITZAYANA,,Fabricación de productos de madera para la construcción,MANZANA 08,57.1,83.9,True,informal,,Sin match en ninguna capa,google_maps
csv_303,Estética Mariel,20.8758884,-89.7435574,"Por 27 y 29, C. 14, Santa Cruz, Umán, 97295 Mérida, Yuc., Mexico","beauty_salon,point_of_interest,service,establishment",False,VENTA DE POSTRES SIN NOMBRE,,Servicios de preparación de otros alimentos para consumo inmediato,003,50.0,51.7,True,informal,,Sin match en ninguna capa,google_maps
csv_304,Brownies Gen,20.876649300000004,-89.7397891,"97390, Umán, 97390 Mérida, Yuc., Mexico","cafe,dessert_shop,confectionery,point_of_interest,food_store,food,store,establishment",False,,,,,0.0,9999.0,True,informal,,Sin match en ninguna capa,google_maps
csv_307,Ropa Americana,20.8758164,-89.73835600000001,"Calle 27, Umán, 97390 Umán, Yuc. x6 y 8 col, Umán, 97390 San Felípe, Yuc., Mexico","clothing_store,point_of_interest,store,establishment",False,TIENDA Y PANADERIA SAN ANTONIO,,Panificación tradicional,SANTA CRUZ,57.1,81.8,True,informal,,Sin match en ninguna capa,google_maps
csv_311,Ropa americana infantil CRISTINA MENA,20.8749743,-89.7400566,"C. 10 entre 27a y 27b.. santa cruz, Umán, 97390 Umán, Yuc., Mexico","clothing_store,point_of_interest,store,establishment",False,TIENDA DE AUTOSERVICIO LA SANTA CRUZ,,"Comercio al por menor en tiendas de abarrotes, ultramarinos y misceláneas",SANTA CRUZ,50.7,98.6,True,informal,,Sin match en ninguna capa,google_maps
csv_315,"""El Patio de los Abuelos"" Salón/Espacio para eventos",20.876385,-89.7364668,"C. 4 140, Umán, 97390 Umán, Yuc., Mexico","event_venue,point_of_interest,service,establishment",False,PAPELERIA LOS ANGELITOS DE PAPA,,Comercio al por menor de artículos de papelería,MIGUEL HIDALGO,55.0,84.1,True,informal,,Sin match en ninguna capa,google_maps
csv_320,Recubrimientos Umán,20.875773,-89.7341614,"calle 20 #103 por calle 23 y calle 25 a un costado del Chara, Manzur, Umán, 97390 Umán, Yuc., Mexico","service,point_of_interest,establishment",False,TALLER INDUSTRIAL COB LARA SIN NOMBRE,,Reparación y mantenimiento de maquinaria y equipo industrial,SAN FELIPE,42.1,60.5,True,informal,,Sin match en ninguna capa,google_maps
csv_325,Transportes ángeles,20.8752608,-89.7301619,"C. 21, Umán, 97390 Umán, Yuc., Mexico","transportation_service,point_of_interest,establishment",False,IGLESIA CRISTIANA ADONAI UMAN,MINISTERIOS ADONAI INTERNACIONAL AR,Asociaciones y organizaciones religiosas,MIGUEL HIDALGO,38.9,42.8,True,informal,,Sin match en ninguna capa,google_maps
csv_326,TERRENO EN VENTA,20.877147000000004,-89.686098,"V8G7+VH, 97394 Ticimul, Yuc., Mexico","real_estate_agency,point_of_interest,service,establishment",False,,,,,0.0,9999.0,True,informal,,Sin match en ninguna capa,google_maps
csv_328,FULL SERVICE MECÁNICA DIESEL,20.8772278,-89.6527254,"97315 Merida, Yucatan, Mexico","car_repair,point_of_interest,service,establishment",False,,,,,0.0,9999.0,True,informal,,Sin match en ninguna capa,google_maps
csv_329,EL DESEO,20.8767089,-89.6525344,"C. 84, 97315 Santa Cruz Palomeque, Yuc., Mexico","sports_activity_location,point_of_interest,establishment",False,,,,,0.0,9999.0,True,informal,,Sin match en ninguna capa,google_maps
csv_330,Servicio automotriz Luis burgos,20.8759362,-89.6311882,"C. 227 x 225, 97315 Xmatkuil, Yuc., Mexico","car_repair,point_of_interest,service,establishment",False,,,,,0.0,9999.0,True,informal,,Sin match en ninguna capa,google_maps
csv_331,Luis Burgos servicio automotriz,20.875987,-89.63114259999999,"V9G9+9G, 97315 Xmatkuil, Yuc., Mexico","car_repair,point_of_interest,service,establishment",False,,,,,0.0,9999.0,True,informal,,Sin match en ninguna capa,google_maps
csv_332,Transporte y mudanza franco,20.8754463,-89.6264767,"C. 50, Sin Nombre de Col 19, 97315 Xmatkuil, Yuc., Mexico","moving_company,shipping_service,transportation_service,point_of_interest,service,establishment",False,,,,,0.0,9999.0,True,informal,,Sin match en ninguna capa,google_maps
csv_334,TARSIS LOGÍSTICA,20.8758693,-89.6263271,"Calle 50 Lote 15 No. Int. 1 Xmatkuil, Sin Nombre de Col 19, 97315 Xmatkuil, Yuc., Mexico","shipping_service,transportation_service,point_of_interest,service,establishment",False,,,,,0.0,9999.0,True,informal,,Sin match en ninguna capa,google_maps
csv_335,Palmas del Sur,20.8762697,-89.6257055,"c137 #, C. 227 c137, Sin Nombre de Col 19, 97315 Xmatkuil, Yucatán, Mexico","restaurant,point_of_interest,food,establishment",False,,,,,0.0,9999.0,True,informal,,Sin match en ninguna capa,google_maps
csv_336,Villa Garcia,20.8776207,-89.6268662,"C. 223 206, Sin Nombre de Col 19, 97314 Xmatkuil, Yuc., Mexico","event_venue,point_of_interest,service,establishment",False,,,,,0.0,9999.0,True,informal,,Sin match en ninguna capa,google_maps
csv_337,AH-CANUL CONSTRUCTORES S.A de C.V,20.876178,-89.6260743,"C. 50 500, Sin Nombre de Col 19, 97315 Xmatkuil, Yuc., Mexico","corporate_office,point_of_interest,establishment",False,,,,,0.0,9999.0,True,informal,,Sin match en ninguna capa,google_maps
csv_338,EduGo,20.8763542,-89.6257277,"C. 227 55, Sin Nombre de Col 19, 97315 Xmatkuil, Yuc., Mexico","point_of_interest,establishment",False,,,,,0.0,9999.0,True,informal,,Sin match en ninguna capa,google_maps
csv_342,Rancho Tio Juan,20.876762,-89.60275779999999,"V9GW+PV, 97315 Tahdzibichén, Yuc., Mexico","campground,lodging,point_of_interest,establishment",False,,,,,0.0,9999.0,True,informal,,Sin match en ninguna capa,google_maps
csv_345,Pensión Mérida,20.8773628,-89.5954307,"97315 Merida, Yucatan, Mexico","parking_lot,parking,transportation_service,point_of_interest,service,establishment",False,,,,,0.0,9999.0,True,informal,,Sin match en ninguna capa,google_maps
csv_348,Granja de huevos hersob,20.8766398,-89.5582834,"C. 20, 97376 Yuc., Mexico","ranch,farm,point_of_interest,service,food,manufacturer,establishment",False,,,,,0.0,9999.0,True,informal,,Sin match en ninguna capa,google_maps
csv_350,Finca San Martin,20.8765286,-89.55566859999999,"VCGV+JP, 97376 Hunxectamán, Yuc., Mexico","hiking_area,sports_activity_location,point_of_interest,establishment",False,,,,,0.0,9999.0,True,informal,,Sin match en ninguna capa,google_maps
csv_351,Rancho,20.8755381,-89.5485621,"97378 Subincancab, Yuc., Mexico","point_of_interest,service,establishment",False,,,,,0.0,9999.0,True,informal,,Sin match en ninguna capa,google_maps
csv_352,Basurero municipal Kanasin,20.8774553,-89.53291240000001,"Kanasín Municipality, 97376 Yucatan, Mexico","point_of_interest,service,establishment",False,,,,,0.0,9999.0,True,informal,,Sin match en ninguna capa,google_maps
csv_353,Sana Basurero,20.877476,-89.5329386,"Tepich, 97376 Yuc., Mexico","point_of_interest,service,establishment",False,,,,,0.0,9999.0,True,informal,,Sin match en ninguna capa,google_maps
csv_354,Casa de Carlos Alberto Guerrero Rubio,20.8775878,-89.5334391,"VFH8+2J, 97376 Subincancab, Yuc., Mexico","bar,point_of_interest,establishment",False,,,,,0.0,9999.0,True,informal,,Sin match en ninguna capa,google_maps
csv_356,"""San Judas""",20.877026,-89.50249869999999,"97376 Tepich Carrillo, Yucatan, Mexico","restaurant,point_of_interest,food,establishment",False,SIX EL PASO DE TEPICH,CONTROLADORA DE NEGOCIOS COMERCIALES SA DE CV,Comercio al por menor de cerveza,TEPICH CARRILLO,50.0,27.4,True,informal,,Sin match en ninguna capa,google_maps
csv_363,CIBER CENTER,20.8798259,-89.74894970000001,"C. 20-A 111B-POR 23 Y 25, CENTRO, 97390 Umán, Yuc., Mexico","internet_cafe,manufacturer,point_of_interest,store,service,establishment",False,FRUTICENTRO,,Comercio al por menor de frutas y verduras frescas,UMAN,63.2,72.7,True,informal,,Sin match en ninguna capa,google_maps
csv_371,NUVA SPA,20.878686400000003,-89.74772349999999,"C. 25 99, Umán, 97390 Umán, Yuc., Mexico","spa,massage,point_of_interest,health,service,establishment",False,FAUNA MANIA,,Comercio al por menor de mascotas,MANZANA 003,50.0,66.8,True,informal,,Sin match en ninguna capa,google_maps
csv_378,Clínica Celus,20.8798346,-89.7481687,"C. 20 x 23 y 25, centro, 97390 Umán, Yuc., Mexico","doctor,health,point_of_interest,service,establishment",False,CARNICERIA DE CERDO SIN NOMBRE,,Comercio al por menor de carnes rojas,UMAN,61.5,52.7,True,informal,,Sin match en ninguna capa,google_maps
csv_390,Sala de fiesta Las gemelas,20.8779546,-89.7423531,"97390 Dzibikal, Umán, 97390 Umán, Yuc., Mexico","event_venue,point_of_interest,establishment",False,VENTA DE COMIDA SIN NOMBRE,,Restaurantes que preparan otro tipo de alimentos para llevar,MANZANA 16,42.4,65.5,True,informal,,Sin match en ninguna capa,google_maps
csv_397,Palomo veterinaria,20.879264,-89.74062219999999,"C. 23 #71G x 10 y 12, Candelaria, 97390 Umán, Yuc., Mexico","veterinary_care,pet_care,point_of_interest,establishment",False,PAPELERIA Y PRONOSTICOS EL ALEBRIJE,,Comercio al por menor de artículos de papelería,CANDELARIA,53.3,98.8,True,informal,,Sin match en ninguna capa,google_maps
csv_407,ByK Constructora,20.877668300000003,-89.7398092,"Por la calle 8 y la calle 10, C. 25 124, Los Arcos, 97390 Umán, Yuc., Mexico","building_materials_store,point_of_interest,store,establishment",False,YUC SIX LA GLORIA,CONTROLADORA DE NEGOCIOS COMERCIALES SA DE CV,Comercio al por menor de cerveza,DZIBIKAK,50.0,20.3,True,informal,,Sin match en ninguna capa,google_maps
csv_409,tendejón GAEL,20.8776507,-89.73945630000001,"Entre 8 y 10, C. 25 100 A, Umán, 97390 Mérida, Yuc., Mexico","convenience_store,point_of_interest,food_store,food,store,establishment",False,TIENDA Y PANADERIA SAN FELIPE,,Panificación tradicional,SAN FELIPE,54.5,42.8,True,informal,,Sin match en ninguna capa,google_maps
csv_411,Local Barbas,20.879141800000003,-89.73587529999999,"C. 21-A 60, Umán, 97390 Umán, Yuc., Mexico","event_venue,service,point_of_interest,establishment",False,SISTEMA DE AGUA POTABLE Y ALCANTARILLADO DE UMAN,,"Captación, tratamiento y suministro de agua realizados por el sector público",MIGUEL HIDALGO,50.0,39.5,True,informal,,Sin match en ninguna capa,google_maps
csv_412,EL AMIGO CHINO,20.8802148,-89.7362741,"C. 21 40B, 97390 Umán, Yuc., Mexico","fast_food_restaurant,restaurant,food,point_of_interest,establishment",False,IGLESIA DE JESUCRISTO DE LOS SANTOS DE LOS ULTIMOS DIAS,LA IGLESIA DE JESUCRISTO DE LOS SANTOS DE LOS ULTIMOS DIAS EN MEXICO AR,Asociaciones y organizaciones religiosas,ARCOS 2,45.5,39.7,True,informal,,Sin match en ninguna capa,google_maps
csv_416,Subli-Umán,20.877199,-89.7370165,"Calle 25 #72 por 4 y 6, San Felipe, 97390 Umán, Yuc., Mexico","service,point_of_interest,establishment",False,TORTILLERIA Y MOLINO SAN MIGUEL,,Elaboración de tortillas de maíz y molienda de nixtamal,MIGUEL HIDALGO,50.0,46.6,True,informal,,Sin match en ninguna capa,google_maps
csv_417,Tergia Autogas Sucursal Uman 1,20.877918,-89.733496,"C. 2 46, Umán, 97390 Umán, Yuc., Mexico","point_of_interest,supplier,service,establishment",False,,,,,0.0,9999.0,True,informal,,Sin match en ninguna capa,google_maps
csv_419,Génesis Ramos Abogada,20.8782178,-89.7350158,"C. 2 66, Colonia, 97390 Umán, Yuc., Mexico","lawyer,consultant,point_of_interest,service,establishment",False,TIENDA DE ABARROTES LAS 2 HERMANAS,,"Comercio al por menor en tiendas de abarrotes, ultramarinos y misceláneas",MIGUEL HIDALGO,45.2,48.6,True,informal,,Sin match en ninguna capa,google_maps
csv_422,Hobbit 19 pastas,20.8784653,-89.73544919999999,"C. 2 73, Umán, 97390 Umán, Yuc., Mexico","restaurant,point_of_interest,food,establishment",False,TIENDA DE ABARROTES LAS 2 HERMANAS,,"Comercio al por menor en tiendas de abarrotes, ultramarinos y misceláneas",MIGUEL HIDALGO,45.2,7.0,True,informal,,Sin match en ninguna capa,google_maps
csv_423,Lirio Alma Gamboa Makeup And Beauty Sucursal Uman,20.8793814,-89.735221,"C. 21 10, Umán, 97390 Umán, Yuc., Mexico","beauty_salon,point_of_interest,service,establishment",False,SISTEMA DE AGUA POTABLE Y ALCANTARILLADO DE UMAN,,"Captación, tratamiento y suministro de agua realizados por el sector público",MIGUEL HIDALGO,49.4,67.8,True,informal,,Sin match en ninguna capa,google_maps
csv_426,El Regalo de Dios,20.8800868,-89.72588909999999,"V7JF+2J, 97390 Uman, Yucatan, Mexico","point_of_interest,establishment",False,,,,,0.0,9999.0,True,informal,,Sin match en ninguna capa,google_maps
csv_429,Casa Ángel YCB,20.8789175,-89.6849974,"97394 Ticimul, Yuc., Mexico","point_of_interest,service,establishment",False,,,,,0.0,9999.0,True,informal,,Sin match en ninguna capa,google_maps
csv_430,Ferretería Ticimul,20.8779414,-89.6830524,"V8H9+J3, 97394 Ticimul, Yuc., Mexico","hardware_store,point_of_interest,building_materials_store,store,establishment",False,,,,,0.0,9999.0,True,informal,,Sin match en ninguna capa,google_maps
csv_432,"Campo Futbol, Beisbol usus multiples",20.8782405,-89.6832199,"97394 Uman, Yucatan, Mexico","athletic_field,sports_activity_location,point_of_interest,establishment",False,,,,,0.0,9999.0,True,informal,,Sin match en ninguna capa,google_maps
csv_433,Local de eventos Sociales Escafer,20.8790786,-89.6824294,"97394 Ticimul, Yuc., Mexico","night_club,point_of_interest,establishment",False,,,,,0.0,9999.0,True,informal,,Sin match en ninguna capa,google_maps
csv_434,Tendejon La Guadalupana,20.879721,-89.68499039999999,"97394 Ticimul, Yucatan, Mexico","convenience_store,point_of_interest,food_store,food,store,establishment",False,,,,,0.0,9999.0,True,informal,,Sin match en ninguna capa,google_maps
csv_436,Tienda Magdalena,20.8794125,-89.6830571,"97394 Ticimul, Yuc., Mexico","store,point_of_interest,establishment",False,YUC SIX LOUIS,CONTROLADORA DE NEGOCIOS COMERCIALES SA DE CV,Comercio al por menor de cerveza,HACIENDA TICIMUL,23.1,96.6,True,informal,,Sin match en ninguna capa,google_maps
csv_437,"Salón de Fiestas ""Escafer"".",20.8790547,-89.6824135,"97394 Ticimul, Yuc., Mexico","event_venue,point_of_interest,service,establishment",False,,,,,0.0,9999.0,True,informal,,Sin match en ninguna capa,google_maps
csv_438,Tienda y estética,20.8793048,-89.68212120000001,"Santa Cruz Palomeque Etapa II, 97394 Ticimul, Yuc., Mexico","convenience_store,point_of_interest,food_store,food,store,establishment",False,,,,,0.0,9999.0,True,informal,,Sin match en ninguna capa,google_maps
csv_440,🌟LONCHERIA SAN JUDAS TADEO🌟,20.8791606,-89.68431939999999,"97394 Ticimul, Yuc., Mexico","meal_delivery,food_delivery,point_of_interest,food,establishment",False,,,,,0.0,9999.0,True,informal,,Sin match en ninguna capa,google_maps
csv_441,Carnicería López,20.8792499,-89.684017,"Sin Nombre Núm. 6 568, 97394 Ticimul, Yuc., Mexico","butcher_shop,point_of_interest,service,food_store,food,manufacturer,store,establishment",False,,,,,0.0,9999.0,True,informal,,Sin match en ninguna capa,google_maps
csv_442,Forrester studio,20.879421600000004,-89.6830588,"97394 Ticimul, Yuc., Mexico","point_of_interest,establishment",False,YUC SIX LOUIS,CONTROLADORA DE NEGOCIOS COMERCIALES SA DE CV,Comercio al por menor de cerveza,HACIENDA TICIMUL,40.0,95.6,True,informal,,Sin match en ninguna capa,google_maps
csv_443,CocoWash,20.8788026,-89.6817265,"Lote C4, entre 1 Y 3 SN, 97394 Ticimul, Yuc., Mexico","car_wash,point_of_interest,service,establishment",False,,,,,0.0,9999.0,True,informal,,Sin match en ninguna capa,google_maps
csv_444,"Tienda ""Los 3 Reyes""",20.8790673,-89.68231850000001,"V8H9+J3, 97394 Ticimul, Yuc., Mexico","grocery_store,point_of_interest,food_store,food,store,establishment",False,,,,,0.0,9999.0,True,informal,,Sin match en ninguna capa,google_maps
csv_445,Llantera,20.8792761,-89.68146899999999,"Santa Cruz Palomeque Etapa II, 97394 Ticimul, Yuc., Mexico","car_repair,service,point_of_interest,establishment",False,,,,,0.0,9999.0,True,informal,,Sin match en ninguna capa,google_maps
csv_448,Supercarniceria,20.8800885,-89.65915629999999,"Calle 94 Hacienda Santa Cruz Palomeque, hacienda Santa cruz palomeque, 97315 Mérida, Yuc., Mexico","butcher_shop,point_of_interest,service,food_store,food,manufacturer,store,establishment",False,,,,,0.0,9999.0,True,informal,,Sin match en ninguna capa,google_maps
csv_449,SUPER PAPELERÍA Karla,20.8796518,-89.65931479999999,"87 x 94 y 96 Comisaría Santa Cruz Palomeque, hacienda Santa cruz palomeque, 97315 Mérida, Yuc., Mexico","point_of_interest,establishment",False,,,,,0.0,9999.0,True,informal,,Sin match en ninguna capa,google_maps
csv_455,GTA micheladas Frappes elados,20.878921,-89.655087,"C. 88, hacienda Santa cruz palomeque, 97315 Santa Cruz Palomeque, Yuc., Mexico","ice_cream_shop,dessert_shop,confectionery,point_of_interest,food_store,store,food,establishment",False,,,,,0.0,9999.0,True,informal,,Sin match en ninguna capa,google_maps
csv_456,Azulitos GTA,20.8790794,-89.6550826,"Calle 88x87y85 hacienda San Cruz Palomeque, hacienda Santa cruz palomeque, 97315 Mérida, Yuc., Mexico","ice_cream_shop,dessert_shop,confectionery,point_of_interest,food_store,store,food,establishment",False,,,,,0.0,9999.0,True,informal,,Sin match en ninguna capa,google_maps
csv_457,MONTACRGAS MAY PENINSULAR,20.8790783,-89.6564835,"calle 90 x 85 y 87 S/N Santa Cruz Palomeque, hacienda Santa cruz palomeque, 97315 Mérida, Yuc., Mexico","car_repair,point_of_interest,service,establishment",False,,,,,0.0,9999.0,True,informal,,Sin match en ninguna capa,google_maps
csv_460,Restaurante Valentina,20.8800334,-89.6531929,"C. 86 SN, Santa Cruz Palomeque, 97315 Mérida, Yuc., Mexico","mexican_restaurant,family_restaurant,restaurant,point_of_interest,food,establishment",False,,,,,0.0,9999.0,True,informal,,Sin match en ninguna capa,google_maps
csv_461,Santa Cruz,20.8795928,-89.6531902,"Calle 43-A No. 349 por Boulevard 54 y 56, Fraccionamiento Francisco de Montejo C.P. 97203, hacienda Santa cruz palomeque, 97315 Santa Cruz Palomeque, Yuc., Mexico","point_of_interest,service,establishment",False,,,,,0.0,9999.0,True,informal,,Sin match en ninguna capa,google_maps
csv_464,Transportes y Gruas Manrique,20.8786947,-89.65209639999999,"C. 84, santa cruz palomeque, 97315 Mérida, Yuc., Mexico","transportation_service,point_of_interest,establishment",False,,,,,0.0,9999.0,True,informal,,Sin match en ninguna capa,google_maps
csv_465,Tienda Sagrado Corazón De Jesús,20.8785166,-89.65378520000002,"C. 86, hacienda Santa cruz palomeque, 97315 San Antonio, Yuc., Mexico","store,point_of_interest,establishment",False,,,,,0.0,9999.0,True,informal,,Sin match en ninguna capa,google_maps
csv_467,Spa Muyal Ha,20.8800041,-89.6532895,"Calle 86 s/n En el interior de la Hacienda Santa Cruz Santa Cruz Palomeque, hacienda Santa cruz palomeque, 97315 Mérida, Yuc., Mexico","spa,point_of_interest,establishment",False,,,,,0.0,9999.0,True,informal,,Sin match en ninguna capa,google_maps
csv_468,Instalaciones Eléctricas e Hidráulicas Casanova,20.8799491,-89.6528368,"Calle 187L, hacienda Santa cruz palomeque, 97315 Mérida, Yuc., Mexico","general_contractor,point_of_interest,service,establishment",False,,,,,0.0,9999.0,True,informal,,Sin match en ninguna capa,google_maps
csv_469,Posada la familia “los huachos”,20.8784085,-89.6536947,"Calle 86 Santa Cruz Palomeque, hacienda Santa cruz palomeque, 97315 Mérida, Yuc., Mexico","hotel,lodging,point_of_interest,establishment",False,,,,,0.0,9999.0,True,informal,,Sin match en ninguna capa,google_maps
csv_470,PESCADOS Y MARISCOS EL AMIGO,20.8786677,-89.6538528,"C. 86, hacienda Santa cruz palomeque, 97315 Santa Cruz Palomeque, Yuc., Mexico","restaurant,point_of_interest,food,establishment",False,,,,,0.0,9999.0,True,informal,,Sin match en ninguna capa,google_maps
csv_473,Abarrotes Angeles,20.8801362,-89.6512856,"C 83 B s/n, entre 84 y 82, hacienda Santa cruz palomeque, 97315 Mérida, Yuc., Mexico","store,point_of_interest,establishment",False,,,,,0.0,9999.0,True,informal,,Sin match en ninguna capa,google_maps
csv_475,Triplay San Ángel,20.8797001,-89.62760829999999,"Calle 50E, C. 219 &, Sin Nombre de Col 19, 97315 Xmatkuil, Yuc., Mexico","building_materials_store,point_of_interest,store,establishment",False,,,,,0.0,9999.0,True,informal,,Sin match en ninguna capa,google_maps
csv_476,Prodin Plásticos,20.8797875,-89.62872229999999,"C. 219, Sin Nombre de Col 19, 97315 Xmatkuil, Yuc., Mexico","store,point_of_interest,establishment",False,,,,,0.0,9999.0,True,informal,,Sin match en ninguna capa,google_maps
csv_478,IMPRESOS PRINTEC,20.8779831,-89.6288641,"C. 223 52-52-A, Sin Nombre de Col 19, 97315 Mérida, Yuc., Mexico","point_of_interest,service,establishment",False,,,,,0.0,9999.0,True,informal,,Sin match en ninguna capa,google_maps
csv_479,Minisúper Mi Pequeña Miriam,20.8790563,-89.62670399999999,"C. 50 4151, Sin Nombre de Col 19, 97315 Xmatkuil, Yuc., Mexico","store,point_of_interest,establishment",False,,,,,0.0,9999.0,True,informal,,Sin match en ninguna capa,google_maps
csv_481,SALÓN BERMON,20.8797319,-89.6276106,"C. 219 311, entre Calle 50 y Calle 50A, Col. Haltuchén, 97315 Xmatkuil, Yuc., Mexico","beauty_salon,barber_shop,hair_salon,hair_care,point_of_interest,health,service,establishment",False,,,,,0.0,9999.0,True,informal,,Sin match en ninguna capa,google_maps
csv_482,Nami eventos merdia,20.8797561,-89.628281,"C. 219 Lote 5c-219, Sin Nombre de Col 19, 97219 Xmatkuil, Yuc., Mexico","point_of_interest,establishment",False,,,,,0.0,9999.0,True,informal,,Sin match en ninguna capa,google_maps
csv_483,Casa de la Abuela Yamile,20.8791309,-89.62765639999999,"C. 219 311, Sin Nombre de Col 19, 97315 Xmatkuil, Yuc., Mexico","point_of_interest,service,establishment",False,,,,,0.0,9999.0,True,informal,,Sin match en ninguna capa,google_maps
csv_485,Tienda de Abarrotes Doña Obdulia,20.8790563,-89.62670399999999,"C. 50 4151, Sin Nombre de Col 19, 97315 Xmatkuil, Yuc., Mexico","point_of_interest,establishment",False,,,,,0.0,9999.0,True,informal,,Sin match en ninguna capa,google_maps
csv_487,CUARTOS EN RENTA-FERNANDO,20.8791176,-89.62663359999999,"Calle 50 #827 por 219 y 221 Colonia Xmatkuil, Sin Nombre de Col 19, 97315 Mérida, Yuc., Mexico","hotel,hostel,lodging,point_of_interest,establishment",False,,,,,0.0,9999.0,True,informal,,Sin match en ninguna capa,google_maps
csv_488,Centro de acopio AGRANS 42 Sur,20.8779817,-89.5951305,"97345 TAHZIBICHEN SANTA GERTRUDIS COPI, F, 97345 TAHZIBICHEN, Yuc., Mexico","point_of_interest,food,establishment",False,,,,,0.0,9999.0,True,informal,,Sin match en ninguna capa,google_maps
csv_489,YEHUDA CONSTRUCCIÓN,20.8787582,-89.59595399999999,"Mérida - Timucuy, 97315 San Antonio, Yuc., Mexico","general_contractor,point_of_interest,service,establishment",False,,,,,0.0,9999.0,True,informal,,Sin match en ninguna capa,google_maps
csv_490,Hunab comunidad terapéutica a.c,20.8784781,-89.5789053,"97315 San Pedro Chimay, Yuc., Mexico","medical_clinic,point_of_interest,health,establishment",False,,,,,0.0,9999.0,True,informal,,Sin match en ninguna capa,google_maps
csv_491,CASA TURIX,20.8778832,-89.5582992,"97315 Hunxectaman, 97315 Mérida, Yuc., Mexico","ranch,farm,point_of_interest,service,establishment",False,,,,,0.0,9999.0,True,informal,,Sin match en ninguna capa,google_maps
csv_492,Global K,20.8795755,-89.51012779999999,"Kanasín Municipality, 97376 Yucatan, Mexico","point_of_interest,service,establishment",False,,,,,0.0,9999.0,True,informal,,Sin match en ninguna capa,google_maps
csv_501,Uman Municipal Market,20.8802778,-89.7480556,"x 20 y 18, C. 23, Centro, 97390 Umán, Yuc., Mexico","market,point_of_interest,establishment",False,PUBLI UMAN,,Servicios de rotulación y otros servicios de publicidad,UMAN,57.1,52.1,True,informal,,Sin match en ninguna capa,google_maps
csv_517,Clínica 21 - Umán,20.8806844,-89.7427197,"C. 21 82, Candelaria, 97390 Umán, Yuc., Mexico","medical_clinic,health,point_of_interest,establishment",False,CARNICERIA LA CANDELARIA,,Comercio al por menor de carnes rojas,MEJORADA,55.2,51.8,True,informal,,Sin match en ninguna capa,google_maps
csv_523,Autobus Umán - Mérida,20.8811497,-89.7468614,"Umán, 97390 Umán, Yuc., Mexico","transportation_service,point_of_interest,establishment",False,FARMACIA DEL BAZAR UMAN,MEDICAMENTOS POPULARES DEL BAZAR SA DE CV,Farmacias sin minisúper,CENTRO,52.6,73.3,True,informal,,Sin match en ninguna capa,google_maps
csv_525,Hakuna matata,20.8806702,-89.7448864,"C. 16 99A, Umán, 97390 Umán, Yuc., Mexico","western_restaurant,restaurant,food,point_of_interest,establishment",False,COCINA ECONOMICA DOÑA CATA,,Restaurantes que preparan otro tipo de alimentos para llevar,MANZANA 20,60.0,15.2,True,informal,,Sin match en ninguna capa,google_maps
csv_533,CEDIM ultrasonido uman en Clínica 21,20.8806882,-89.74270829999999,"C. 21 14 y 12, Candelaria, 97390 Umán, Yuc., Mexico","doctor,health,point_of_interest,establishment",False,LA MERCED POLLERIA,,Comercio al por menor de carne de aves,CENTRO,53.8,71.1,True,informal,,Sin match en ninguna capa,google_maps
csv_539,Fulana de Tal by Irma Ek,20.880322,-89.738512,"x8 y 6, C. 21 50, Umán, 97390 Umán, Yuc., Mexico","womens_clothing_store,clothing_store,point_of_interest,store,establishment",False,VENTA DE TAMALES CHAMCHAMES Y CHALUPITAS,,Servicios de preparación de otros alimentos para consumo inmediato,CANDELARIA,48.5,31.2,True,informal,,Sin match en ninguna capa,google_maps
csv_550,HOT•DOGS-HAMBURGUESAS “EL PASO”,20.8818196,-89.7358705,"C. 27-e 351, Umán, 97390 Umán, Yuc., Mexico","hamburger_restaurant,american_restaurant,restaurant,point_of_interest,food,establishment",False,TALLER DE HERRERIA SIN NOMBRE,,Fabricación de productos de herrería,JARDINES DE SAN RAFAEL,38.5,92.3,True,informal,,Sin match en ninguna capa,google_maps
csv_551,Pizzeria Coffies,20.8803169,-89.7385798,"x8 y 6, C. 21 50, Umán, 97390 Umán, Yuc., Mexico","pizza_restaurant,restaurant,point_of_interest,food,establishment",False,TIENDA Y PANADERIA LOS ARCOS,,Panificación tradicional,CANDELARIA,61.5,3.4,True,informal,,Sin match en ninguna capa,google_maps
csv_552,Hotel San Juan Paraiso,20.8805325,-89.7354299,"C. 21 42, Umán, 97390 Umán, Yuc., Mexico","hotel,lodging,point_of_interest,establishment",False,PANADERIA ALMIRA,,Panificación tradicional,ARCOS 2,46.2,98.0,True,informal,,Sin match en ninguna capa,google_maps
csv_553,Parcela Sánchez,20.8825067,-89.7239695,"97390 Uman, Yucatan, Mexico","campground,lodging,point_of_interest,establishment",False,,,,,0.0,9999.0,True,informal,,Sin match en ninguna capa,google_maps
csv_555,PARCELA EMILY,20.8818007,-89.72151769999999,"97390 Uman, Yucatan, Mexico","point_of_interest,service,establishment",False,,,,,0.0,9999.0,True,informal,,Sin match en ninguna capa,google_maps
csv_556,THERMOKINERO57 Mérida - Campeche km154.5,20.8808623,-89.7114134,"97394 Sn, 97394 Umán, Yuc., Mexico","shipping_service,service,point_of_interest,establishment",False,,,,,0.0,9999.0,True,informal,,Sin match en ninguna capa,google_maps
csv_557,PENSIÓN & TALLER TRANSPORTES MENDOZA,20.8806875,-89.7108125,"V7JQ+7MX, 97130 Uman, Yucatan, Mexico","lodging,point_of_interest,establishment",False,,,,,0.0,9999.0,True,informal,,Sin match en ninguna capa,google_maps
csv_559,Six,20.8811487,-89.6845919,"Sin Nombre Núm. 8, 97394 San Antonio, Yuc., Mexico","bar,point_of_interest,establishment",False,,,,,0.0,9999.0,True,informal,,Sin match en ninguna capa,google_maps
csv_560,panaderia Osvaldo,20.8806654,-89.6846699,"Sin Nombre Núm. 7, 97394 San Antonio, Yuc., Mexico","bakery,food_store,food,point_of_interest,store,establishment",False,,,,,0.0,9999.0,True,informal,,Sin match en ninguna capa,google_maps
csv_561,Tienda La Sombrita,20.880665,-89.6846822,"97394 Ticimul, Yuc., Mexico","grocery_store,food_store,food,point_of_interest,store,establishment",False,,,,,0.0,9999.0,True,informal,,Sin match en ninguna capa,google_maps
csv_562,LONCHERIA DOÑA ADELA,20.882156,-89.6861433,"97394 Ticimul, Yuc., Mexico","restaurant,food,point_of_interest,establishment",False,,,,,0.0,9999.0,True,informal,,Sin match en ninguna capa,google_maps
csv_566,Mini super San carlos,20.8819961,-89.6845317,"Calle 8, 97390 Umán, Yuc., Mexico","grocery_store,point_of_interest,food_store,food,store,establishment",False,,,,,0.0,9999.0,True,informal,,Sin match en ninguna capa,google_maps
csv_567,Cosmetología Integral by Ana Mar y Terapias Alternativas,20.8811045,-89.6821544,"C. 87 S/N, 97394 Ticimul, Yuc., Mexico","spa,point_of_interest,establishment",False,,,,,0.0,9999.0,True,informal,,Sin match en ninguna capa,google_maps
csv_568,Oficinas Kooxmeya,20.8825346,-89.68409390000001,"97394 Ticimul, Yuc., Mexico","corporate_office,point_of_interest,establishment",False,,,,,0.0,9999.0,True,informal,,Sin match en ninguna capa,google_maps
csv_570,Terapias alternativas. Javier mtz. L.,20.8810969,-89.6820104,"97394 Ticimul, Yuc., Mexico","doctor,health,point_of_interest,establishment",False,,,,,0.0,9999.0,True,informal,,Sin match en ninguna capa,google_maps
csv_572,Tienda la preferida,20.881605,-89.6821879,"Sin Nombre Núm. 4 a, 97394 San Antonio, Yuc., Mexico","home_goods_store,point_of_interest,store,establishment",False,,,,,0.0,9999.0,True,informal,,Sin match en ninguna capa,google_maps
csv_574,¡¡SERVICEL DESK TICIMUL!!📱💻👨🏻‍💼,20.8808308,-89.68047800000001,"Calle 87 s/n hacienda ticimul palomeque Calle 87, Tanil - Ticimul s/n, hacienda, 97394 Ticimul, Yuc., Mexico","point_of_interest,service,establishment",False,,,,,0.0,9999.0,True,informal,,Sin match en ninguna capa,google_maps
csv_575,taller automotriz rescates....,20.8813866,-89.6812247,"C 3 S/N, 97394 Ticimul, Yuc., Mexico","point_of_interest,establishment",False,,,,,0.0,9999.0,True,informal,,Sin match en ninguna capa,google_maps
csv_579,Vivero el Tio de Yucatan.,20.8816177,-89.6776026,"97394 Uman, Yucatan, Mexico","wholesaler,point_of_interest,establishment",False,,,,,0.0,9999.0,True,informal,,Sin match en ninguna capa,google_maps
csv_580,"Taller Mecanico ""RPM'",20.8808461,-89.68066809999999,"Carrt. Ticimul 87, 97394 Ticimul, Yuc., Mexico","point_of_interest,establishment",False,,,,,0.0,9999.0,True,informal,,Sin match en ninguna capa,google_maps
csv_581,"""Canastas Navideñas Rina""",20.8809127,-89.6809066,"C. 87, 97394 Ticimul, Yuc., Mexico","gift_shop,point_of_interest,service,store,establishment",False,,,,,0.0,9999.0,True,informal,,Sin match en ninguna capa,google_maps
csv_587,Pool-Ar,20.8816711,-89.67390069999999,"C. 108 209, 97295 Mérida, Yuc., Mexico","home_goods_store,store,point_of_interest,establishment",False,TALLER DE CARPINTERIA LA CARPINTERCA,,"Fabricación de muebles, excepto cocinas integrales, muebles modulares de baño y muebles de oficina y estantería",SANTA CRUZ NORTE,57.1,38.2,True,informal,,Sin match en ninguna capa,google_maps
csv_589,Casa Gustavo,20.88155,-89.67367759999999,"C. 108 209, 97295 Mérida, Yuc., Mexico","service,point_of_interest,establishment",False,LA CASITA DE MADERA DETALLES Y JUGUETES,,Comercio al por menor de regalos,SANTA CRUZ NORTE,57.1,44.1,True,informal,,Sin match en ninguna capa,google_maps
csv_592,INGENIERÍA Y TECNOLOGÍA AMBIENTAL,20.8809715,-89.6734254,"Calle 108 , lote 735 casa 2 Mérida, yucatan Fraccionamiento Sta. Cruz Norte, 97315 Mérida, Yuc., Mexico","consultant,service,point_of_interest,establishment",False,PAPELERIA MELODY,,Comercio al por menor de artículos de papelería,SANTA CRUZ NORTE,56.2,66.9,True,informal,,Sin match en ninguna capa,google_maps
csv_593,Llantera Sta cruz Ntr,20.8811176,-89.6747396,"C. 108 738, 97315 Mérida, Yuc., Mexico","car_repair,service,point_of_interest,establishment",False,TALLER DE CARPINTERIA LA CARPINTERCA,,"Fabricación de muebles, excepto cocinas integrales, muebles modulares de baño y muebles de oficina y estantería",SANTA CRUZ NORTE,57.1,75.5,True,informal,,Sin match en ninguna capa,google_maps
csv_594,"Colección, Joyas y Regalos de Yucatán (CJR Yucatán)",20.881126,-89.6742898,"C. 110 742-2, Santa Cruz, Norte, 97315 Mérida, Yuc., Mexico","store,point_of_interest,establishment",False,TALLER DE REPARACION DE REFRIGERACION,,Reparación y mantenimiento de maquinaria y equipo comercial y de servicios,SANTA CRUZ NORTE,45.3,74.0,True,informal,,Sin match en ninguna capa,google_maps
csv_595,NOVA VIDA,20.8818964,-89.6749877,"C. 213 597-1, FRACCIONAMIENTO SANTA CRUZ NORTE, 97315 Mérida, Yuc., Mexico","health,store,point_of_interest,establishment",False,TIENDA DE ABARROTES LOS 2 HERMANOS,,"Comercio al por menor en tiendas de abarrotes, ultramarinos y misceláneas",SANTA CRUZ NORTE,47.1,75.5,True,informal,,Sin match en ninguna capa,google_maps
csv_597,Aura Salón,20.881696800000004,-89.67385209999999,"C. 108 209, 97295 Mérida, Yuc., Mexico","beauty_salon,service,point_of_interest,establishment",False,CARPINTERIA SIN NOMBRE,,Fabricación de productos de madera para la construcción,SANTA CRUZ NORTE,50.0,54.8,True,informal,,Sin match en ninguna capa,google_maps
csv_599,Fracc. Santa Cruz Norte,20.8816811,-89.67313050000001,"C. 211 586-2, Fracc. Santa Cruz Norte, 97315 Mérida, Yuc., Mexico","point_of_interest,service,establishment",False,TALLER DE REFRIGERACION SIN NOMBRE,,Reparación y mantenimiento de maquinaria y equipo comercial y de servicios,SANTA CRUZ NORTE,56.4,73.9,True,informal,,Sin match en ninguna capa,google_maps
csv_603,Dashy's Nails Store & Academy Merida,20.8826438,-89.67196150000001,"C. 106, 97315 Yuc., Mexico","nail_salon,beauty_salon,point_of_interest,service,establishment",False,TIENDA DE ABARROTES MARIISA,,"Comercio al por menor en tiendas de abarrotes, ultramarinos y misceláneas",SANTA CRUZ NORTE,48.9,59.2,True,informal,,Sin match en ninguna capa,google_maps
csv_604,Calzado romina shoes,20.8821183,-89.6734027,"97315 Merida, Yucatan, Mexico","shoe_store,point_of_interest,store,establishment",False,CARPINTERIA SIN NOMBRE,,Fabricación de productos de madera para la construcción,SANTA CRUZ NORTE,48.5,88.3,True,informal,,Sin match en ninguna capa,google_maps
csv_608,Tienda Guadalupe,20.8817369,-89.67138080000001,"Calle 299 Supermanzana norte casa 543-1, Santa Cruz, 97315 Mérida, Yuc., Mexico","store,point_of_interest,establishment",False,,,,,0.0,9999.0,True,informal,,Sin match en ninguna capa,google_maps
csv_609,Mondi,20.8825465,-89.6728747,"V8MG+2RM, 97295 Merida, Yucatan, Mexico","car_repair,point_of_interest,service,establishment",False,EL OXXITO,,"Comercio al por menor en tiendas de abarrotes, ultramarinos y misceláneas",SANTA CRUZ NORTE,44.4,53.1,True,informal,,Sin match en ninguna capa,google_maps
csv_613,Casa chopper,20.8818896,-89.6722289,"C. 209, 97315 Mérida, Yuc., Mexico","point_of_interest,service,establishment",False,GRUPO VIVE DESARROLLO DEL SURESTE,GRUPO VIVE DESAROLLO DEL SURESTE SA DE CV,Edificación de vivienda unifamiliar,FRACC SANTA CRUZ NORTE,33.3,91.8,True,informal,,Sin match en ninguna capa,google_maps
csv_615,Local La Luna,20.8813215,-89.65857659999999,"hacienda Santa cruz palomeque, 97315 Santa Cruz Palomeque, Yuc., Mexico","private_guest_room,lodging,point_of_interest,establishment",False,,,,,0.0,9999.0,True,informal,,Sin match en ninguna capa,google_maps
csv_617,Jp Sublimacion y Vinil,20.8804499,-89.6568386,"C. 85, hacienda Santa cruz palomeque, 97315 Santa Cruz Palomeque, Yuc., Mexico","home_goods_store,point_of_interest,store,establishment",False,,,,,0.0,9999.0,True,informal,,Sin match en ninguna capa,google_maps
csv_618,"Tendejon ""La Estrella""",20.8808174,-89.65661279999999,"Sin Nombre No. 5, hacienda Santa cruz palomeque, 97315 San Antonio, Yuc., Mexico","home_goods_store,point_of_interest,store,establishment",False,,,,,0.0,9999.0,True,informal,,Sin match en ninguna capa,google_maps
csv_620,Tendejon La Chicha,20.8803279,-89.6574749,"C. 92, hacienda Santa cruz palomeque, 97315 Santa Cruz Palomeque, Yuc., Mexico","lodging,point_of_interest,establishment",False,,,,,0.0,9999.0,True,informal,,Sin match en ninguna capa,google_maps
csv_621,el chuen,20.8816282,-89.65719419999999,"C. 83, hacienda Santa cruz palomeque, 97315 Santa Cruz Palomeque, Yuc., Mexico","point_of_interest,service,establishment",False,,,,,0.0,9999.0,True,informal,,Sin match en ninguna capa,google_maps
csv_623,Las Gemelas Local,20.880652,-89.65549659999999,"97315 Santa Cruz Palomeque, hacienda Santa cruz palomeque, 97315 Mérida, Yuc., Mexico","event_venue,point_of_interest,service,establishment",False,,,,,0.0,9999.0,True,informal,,Sin match en ninguna capa,google_maps
csv_624,Gym monster,20.8806892,-89.6546389,"C. 88 88, hacienda Santa cruz palomeque, 97315 Santa Cruz Palomeque, Yuc., Mexico","gym,sports_activity_location,health,point_of_interest,establishment",False,,,,,0.0,9999.0,True,informal,,Sin match en ninguna capa,google_maps
csv_626,"HAMBURGUESAS Y PERROS CALIENTES ""EL BALDÍO""",20.8802586,-89.65466049999999,"C. 112 N, entre 187M, hacienda Santa cruz palomeque, 97315 Santa Cruz Palomeque, Yuc., Mexico","meal_delivery,food_delivery,point_of_interest,food,establishment",False,,,,,0.0,9999.0,True,informal,,Sin match en ninguna capa,google_maps
csv_627,Oliveros,20.8810515,-89.6527929,"Calle 83a x 86 y 84 s/n Hacienda santa cruz palomeque, hacienda Santa cruz palomeque, 97315 Mérida, Yuc., Mexico","ice_cream_shop,dessert_shop,confectionery,point_of_interest,food_store,food,store,establishment",False,,,,,0.0,9999.0,True,informal,,Sin match en ninguna capa,google_maps
csv_628,Mini Super La Santa Cruz,20.8823724,-89.65317499999999,"C. 86, hacienda Santa cruz palomeque, 97315 Mérida, Yuc., Mexico","grocery_store,point_of_interest,food_store,food,store,establishment",False,,,,,0.0,9999.0,True,informal,,Sin match en ninguna capa,google_maps
csv_631,Tendejon la huaya,20.8812905,-89.6532847,"Santa Cruz palomeque, 97315 Mérida, Yuc., Mexico","point_of_interest,food,store,establishment",False,,,,,0.0,9999.0,True,informal,,Sin match en ninguna capa,google_maps
csv_632,Tienda el naranjo,20.8810443,-89.65279869999999,"Sin Nombre 83A, Santa Cruz, hacienda Santa cruz palomeque, 97315 Mérida, Yuc., Mexico","grocery_store,point_of_interest,food_store,food,store,establishment",False,,,,,0.0,9999.0,True,informal,,Sin match en ninguna capa,google_maps
csv_633,Tendejón 3 de mayo,20.882035,-89.65426099999999,"Sin nombre 83, FRACC. SANTA CRUZ PALOMEQUE, hacienda Santa cruz palomeque, 97315 Mérida, Yuc., Mexico","grocery_store,point_of_interest,food_store,food,store,establishment",False,,,,,0.0,9999.0,True,informal,,Sin match en ninguna capa,google_maps
csv_634,TALLER MECANICO AUTOMOTRIZ VAZQUEZ,20.8810151,-89.6519235,"97315 Hacienda santa cruz palomeque, hacienda Santa cruz palomeque, 97315 Mérida, Yuc., Mexico","car_repair,point_of_interest,service,establishment",False,,,,,0.0,9999.0,True,informal,,Sin match en ninguna capa,google_maps
csv_635,"Molino Y Tortilleria ""Los Hermanos",20.8813269,-89.65350470000001,"C. 86, hacienda Santa cruz palomeque, 97315 San Antonio, Yuc., Mexico","point_of_interest,food,store,establishment",False,,,,,0.0,9999.0,True,informal,,Sin match en ninguna capa,google_maps
csv_637,Taller Mecanico JR Santos,20.8820906,-89.65064230000002,"C.83 x84a, cerrada, hacienda Santa cruz palomeque, 97315 Mérida, Yuc., Mexico","car_repair,point_of_interest,service,establishment",False,,,,,0.0,9999.0,True,informal,,Sin match en ninguna capa,google_maps
csv_640,Ventas maribel,20.8826225,-89.65128059999999,"C. 84 84, hacienda Santa cruz palomeque, 97315 Santa Cruz Palomeque, Yuc., Mexico","restaurant,point_of_interest,food,establishment",False,,,,,0.0,9999.0,True,informal,,Sin match en ninguna capa,google_maps
csv_643,Bm,20.882581,-89.63172399999999,"C. 215, Haltunchén, 97315 Xmatkuil, Yuc., Mexico","point_of_interest,establishment",False,,,,,0.0,9999.0,True,informal,,Sin match en ninguna capa,google_maps
csv_647,Granja xmatkuil,20.8810237,-89.6278718,"Calle 50E, C. 219 &, Sin Nombre de Col 19, 97315 Xmatkuil, Yuc., Mexico","ranch,farm,point_of_interest,service,food,manufacturer,establishment",False,,,,,0.0,9999.0,True,informal,,Sin match en ninguna capa,google_maps
csv_648,Casa Juan Villanueva,20.8823394,-89.6290162,"C. 215, Haltunchén, 97315 Xmatkuil, Yuc., Mexico","point_of_interest,service,establishment",False,,,,,0.0,9999.0,True,informal,,Sin match en ninguna capa,google_maps
csv_649,AURENZA,20.8823375,-89.6291719,"V9JC+W8P, Sin Nombre de Col 19, 97315 Xmatkuil, Yuc., Mexico","point_of_interest,service,establishment",False,,,,,0.0,9999.0,True,informal,,Sin match en ninguna capa,google_maps
csv_650,Abono Maya,20.8816899,-89.6255925,"C. 50 3909, Sin Nombre de Col 19, 97315 Xmatkuil, Yuc., Mexico","manufacturer,point_of_interest,establishment",False,,,,,0.0,9999.0,True,informal,,Sin match en ninguna capa,google_maps
csv_653,"Taller de Herrería Automotríz "" EL COCHI""",20.881653900000003,-89.6236653,"C. 215 S/N-por 46, Sin Nombre de Col 19, 97315 Xmatkuil, Yuc., Mexico","car_repair,point_of_interest,service,establishment",False,,,,,0.0,9999.0,True,informal,,Sin match en ninguna capa,google_maps
csv_654,Taller Jaramillo,20.8822032,-89.6002767,"Calle 55 sin, número x42, 97390 Tahdzibichén, Yuc., Mexico","car_repair,point_of_interest,service,establishment",False,,,,,0.0,9999.0,True,informal,,Sin match en ninguna capa,google_maps
csv_655,"""Mis Tres Amores”",20.8821624,-89.60052619999999,"C. 55 x 42, tahdzibichen:, 97315 Mérida, Yuc., Mexico","event_venue,point_of_interest,service,establishment",False,,,,,0.0,9999.0,True,informal,,Sin match en ninguna capa,google_maps
csv_656,Rancho Los Arrayanes,20.8813267,-89.5969204,"Calle 42 Sur, C. Comisaria Tahdzibichén 49 S/N, 97315 Mérida, Yuc., Mexico","breakfast_restaurant,amusement_center,tour_agency,travel_agency,lodging,restaurant,point_of_interest,service,food,establishment",False,,,,,0.0,9999.0,True,informal,,Sin match en ninguna capa,google_maps
csv_657,Casa Yum Kaax,20.8825317,-89.5988043,"C. 55, 97315 Mérida, Yuc., Mexico","swimming_pool,sports_activity_location,point_of_interest,establishment",False,,,,,0.0,9999.0,True,informal,,Sin match en ninguna capa,google_maps
csv_661,Ladero 34,20.881899,-89.59415,"VCJ4+Q8, 97315 Tahdzibichén, Yuc., Mexico","transportation_service,point_of_interest,establishment",False,,,,,0.0,9999.0,True,informal,,Sin match en ninguna capa,google_maps
csv_664,Villa Muuk,20.8821231,-89.5619329,"VCJQ+R6, 97315 Hunxectamán, Yuc., Mexico","point_of_interest,service,establishment",False,,,,,0.0,9999.0,True,informal,,Sin match en ninguna capa,google_maps
csv_665,distribuidor,20.8823961,-89.56075059999999,"97315 Merida, Yucatan, Mexico","real_estate_agency,point_of_interest,service,establishment",False,,,,,0.0,9999.0,True,informal,,Sin match en ninguna capa,google_maps
csv_666,Tienda “ROSY”,20.8821681,-89.5577196,"VCJR+VV, 97315 Hunxectamán, Yuc., Mexico","store,point_of_interest,establishment",False,,,,,0.0,9999.0,True,informal,,Sin match en ninguna capa,google_maps
csv_667,Shirley alonso studio,20.8824098,-89.55790789999999,"97315 Merida, Yucatan, Mexico","nail_salon,beauty_salon,point_of_interest,service,establishment",False,,,,,0.0,9999.0,True,informal,,Sin match en ninguna capa,google_maps
csv_669,Contreras moto,20.8807329,-89.5016033,"97382 Tepich Carrillo, Yuc., Mexico","car_repair,point_of_interest,service,establishment",False,,,,,0.0,9999.0,True,informal,,Sin match en ninguna capa,google_maps
csv_686,Dr. Méndez Buenfil Eduardo,20.8831853,-89.7462528,"Calle 18 No 82 17 por 19 Centro Centro, Umán, 97390 Umán, Yuc., Mexico","doctor,health,point_of_interest,establishment",False,CONSULTORIO MEDICO GENERAL CON RADIOLOGIA,,Consultorios de medicina general del sector privado,CENTRO,48.0,27.7,True,informal,,Sin match en ninguna capa,google_maps
csv_689,Romasevi,20.8839979,-89.7397051,"97390 Bartolomé García, Umán, 97390 Umán, Yuc., Mexico","event_venue,point_of_interest,service,establishment",False,CENTRO DE DESARROLLO COMUNITARIO MANUEL CEPEDA PERAZA,HONORABLE AYUNTAMIENTO DE UMAN ,Servicios de orientación y trabajo social para la niñez y la juventud prestados por el sector público,CEPEDA PERAZA,50.0,94.1,True,informal,,Sin match en ninguna capa,google_maps
csv_693,"LOCAL "" F . P """,20.8843258,-89.74056879999999,"Bartolome Garcia, Umán, 97390 Umán, Yuc., Mexico","event_venue,point_of_interest,service,establishment",False,FLORERIA AMOR FLORAL,,Comercio al por menor de regalos,CENTRO,57.1,61.8,True,informal,,Sin match en ninguna capa,google_maps
csv_697,Zapatería Santa Elena,20.8849025,-89.74269000000001,"Calle 27 #110B, Por 22 y 24, Santa Elena, 97390 Umán, Yuc., Mexico","shoe_store,point_of_interest,store,establishment",False,CAJERO AUTOMÁTICO SANTANDER,BANCO SANTANDER ,Banca múltiple,PARQUE INDUSTRIAL DEL SURESTE,55.6,57.0,True,informal,,Sin match en ninguna capa,google_maps
csv_699,Glam Estudio,20.8840068,-89.73897649999999,"C 14 B x 8 A y, C. 8-B, Umán, 97390 Umán, Yuc., Mexico","beauty_salon,point_of_interest,service,establishment",False,CAPILLA SAGRADO CORAZON DE JESUS,ARQUIDIOCESIS DE YUCATAN AR,Asociaciones y organizaciones religiosas,CEPEDA PERAZA,50.0,59.7,True,informal,,Sin match en ninguna capa,google_maps
csv_701,Umán TV,20.8820832,-89.7383931,"C. 19 40, Umán, 97390 Umán, Yuc., Mexico","coffee_shop,cafe,point_of_interest,food_store,store,food,establishment",False,SAN FRANCISCO H2O AGUA PURIFICADA,,Purificación y embotellado de agua,SAN FRANCISCO,54.5,34.0,True,informal,,Sin match en ninguna capa,google_maps
csv_709,Empanadas Carmita,20.882526,-89.73789099999999,"C. 19 26, Umán, 97390 Umán, Yuc., Mexico","mexican_restaurant,restaurant,point_of_interest,food,establishment",False,TIENDA LA CONCHITA,,"Comercio al por menor en tiendas de abarrotes, ultramarinos y misceláneas",CEPEDA PERAZA,57.1,61.6,True,informal,,Sin match en ninguna capa,google_maps
csv_712,Construcción y Renta de Maquinaria GV,20.8812619,-89.7376386,"C. 19A entre 6A y 6B, Umán, 97390 Umán, Yuc., Mexico","point_of_interest,service,establishment",False,TALLER MECANICO,,Reparación mecánica en general de automóviles y camiones,ARCOS 2,46.7,80.0,True,informal,,Sin match en ninguna capa,google_maps
csv_714,Carnes de borrego SAN JUDAS TADEO,20.8808907,-89.7371677,"C. 6a, Umán, 97390 Umán, Yuc., Mexico","butcher_shop,manufacturer,point_of_interest,food_store,store,food,service,establishment",False,IGLESIA DE JESUCRISTO DE LOS SANTOS DE LOS ULTIMOS DIAS,LA IGLESIA DE JESUCRISTO DE LOS SANTOS DE LOS ULTIMOS DIAS EN MEXICO AR,Asociaciones y organizaciones religiosas,ARCOS 2,46.7,84.8,True,informal,,Sin match en ninguna capa,google_maps
csv_716,Lavadero Sanjudas Tadeo,20.8840455,-89.734768,"C. 38, Siglo XXI, 97390 Umán, Yuc., Mexico","car_wash,point_of_interest,service,establishment",False,SIX EL QUERUBIN UMAN,,Comercio al por menor de cerveza,SIGLO XXI,34.5,84.0,True,informal,,Sin match en ninguna capa,google_maps
csv_718,Taller de Herrería y Estructuras Metálicas A&G,20.883083,-89.72827799999999,"V7JC+XH, 97390 Uman, Yucatan, Mexico","general_contractor,service,point_of_interest,establishment",False,,,,,0.0,9999.0,True,informal,,Sin match en ninguna capa,google_maps
csv_721,Logística Togua,20.8847295,-89.6894416,"Tanil - Ticimul, 97394 Ticimul, Yuc., Mexico","point_of_interest,establishment",False,,,,,0.0,9999.0,True,informal,,Sin match en ninguna capa,google_maps
csv_722,Casa geydy,20.883658,-89.684917,"Tanil - Ticimul 1576, Itzincab, 97394 Ticimul, Yuc., Mexico","parking_lot,parking,transportation_service,point_of_interest,service,establishment",False,,,,,0.0,9999.0,True,informal,,Sin match en ninguna capa,google_maps
csv_723,Constructora Chanper,20.8838377,-89.6866308,"97394 Ticimul, Yuc., Mexico","point_of_interest,service,establishment",False,,,,,0.0,9999.0,True,informal,,Sin match en ninguna capa,google_maps
csv_724,Grupo Avícola Rodríguez,20.882011,-89.68446929999999,"Sin Nombre Núm. 3 54, 97394 Ticimul, Yuc., Mexico","point_of_interest,food_store,food,store,establishment",False,,,,,0.0,9999.0,True,informal,,Sin match en ninguna capa,google_maps
csv_725,Surti&Carnes,20.8829361,-89.6815321,"Sin Nombre Núm. 1, 97394 Ticimul, Yuc., Mexico","breakfast_restaurant,restaurant,point_of_interest,food,establishment",False,,,,,0.0,9999.0,True,informal,,Sin match en ninguna capa,google_maps
csv_726,Tendejon La Bendicion De Dios,20.8828218,-89.6815915,"Sin Nombre Núm. 1, 97394 San Antonio, Yuc., Mexico","convenience_store,point_of_interest,food_store,food,store,establishment",False,,,,,0.0,9999.0,True,informal,,Sin match en ninguna capa,google_maps
csv_728,"Heladería ""CHONGUITOS""",20.8832398,-89.6820826,"97394 Ticimul, Yuc., Mexico","ice_cream_shop,dessert_shop,confectionery,point_of_interest,food_store,food,store,establishment",False,,,,,0.0,9999.0,True,informal,,Sin match en ninguna capa,google_maps
csv_730,Taller de motos old school,20.8808072,-89.6837685,"Sin Nombre Núm. 6 568, 97394 Ticimul, Yuc., Mexico","car_repair,point_of_interest,service,establishment",False,YUC SIX LOUIS,CONTROLADORA DE NEGOCIOS COMERCIALES SA DE CV,Comercio al por menor de cerveza,HACIENDA TICIMUL,38.5,77.1,True,informal,,Sin match en ninguna capa,google_maps
csv_732,CARNES Y FRUTAS Dauriel,20.8829244,-89.6815297,"Sin Nombre Núm. 1, 97394 San Antonio, Yuc., Mexico","point_of_interest,establishment",False,,,,,0.0,9999.0,True,informal,,Sin match en ninguna capa,google_maps
csv_733,Desayunos Mimi,20.882901,-89.6815429,"Sin Nombre Núm. 1, 97394 Ticimul, Yuc., Mexico","breakfast_restaurant,restaurant,food,point_of_interest,establishment",False,,,,,0.0,9999.0,True,informal,,Sin match en ninguna capa,google_maps
csv_734,Variedades Las güeritas,20.8826694,-89.68161649999999,"97394 Ticimul, Yuc., Mexico","wholesaler,point_of_interest,establishment",False,,,,,0.0,9999.0,True,informal,,Sin match en ninguna capa,google_maps
csv_735,"Cochinita ""EL CAPI""",20.8829942,-89.6748654,"C. 114 713-2, entre 207a, Santa Cruz, norte, 97315 Mérida, Yuc., Mexico","butcher_shop,point_of_interest,service,food_store,food,manufacturer,store,establishment",False,TIENDA DE ABARROTES 5 ESRELLAS,,"Comercio al por menor en tiendas de abarrotes, ultramarinos y misceláneas",SANTA CRUZ NORTE,45.5,37.2,True,informal,,Sin match en ninguna capa,google_maps
csv_737,Mr Platillos,20.8836672,-89.6746838,"Santa Cruz 114-699-2, norte, 97315 Mérida, Yuc., Mexico","meal_takeaway,restaurant,point_of_interest,food,establishment",False,TIENDA DE ABARROTES 5 ESRELLAS,,"Comercio al por menor en tiendas de abarrotes, ultramarinos y misceláneas",SANTA CRUZ NORTE,44.4,40.1,True,informal,,Sin match en ninguna capa,google_maps
csv_741,Accesorios Marisol,20.8829708,-89.6730233,"C. 108 701-1 x 209, Santa Cruz, Norte, 97315 Mérida, Yuc., Mexico","gift_shop,point_of_interest,store,establishment",False,TIENDA DE ABARROTES MARIISA,,"Comercio al por menor en tiendas de abarrotes, ultramarinos y misceláneas",SANTA CRUZ NORTE,60.6,73.5,True,informal,,Sin match en ninguna capa,google_maps
csv_746,Piñatas Papos | Piñateria en Mérida Yucatán,20.8828671,-89.67249679999999,"Santa Cruz Norte, C. 106A, 97249 Mérida, Yuc., Mexico","home_goods_store,point_of_interest,service,store,establishment",False,TIENDA DE ABARROTES MARIISA,,"Comercio al por menor en tiendas de abarrotes, ultramarinos y misceláneas",SANTA CRUZ NORTE,51.1,39.5,True,informal,,Sin match en ninguna capa,google_maps
csv_747,CAR WASH- CHUCHO'S,20.8824977,-89.67259159999999,"Calle 106a #709² x 207, Fracc. Santa cruz norte, 97315 Mérida, Yuc., Mexico","car_wash,point_of_interest,service,establishment",False,SIX SANTA CRUZ,,"Comercio al por menor en tiendas de abarrotes, ultramarinos y misceláneas",SANTA CRUZ NORTE,45.2,41.2,True,informal,,Sin match en ninguna capa,google_maps
csv_748,Nabté,20.882216400000004,-89.6727568,"V8MG+2RM, 97295 Merida, Yucatan, Mexico","beauty_salon,point_of_interest,service,establishment",False,GRUPO VIVE DESARROLLO DEL SURESTE,GRUPO VIVE DESAROLLO DEL SURESTE SA DE CV,Edificación de vivienda unifamiliar,FRACC SANTA CRUZ NORTE,57.1,51.3,True,informal,,Sin match en ninguna capa,google_maps
csv_749,"Merida, colonia Bojorquez house",20.8840103,-89.6725998,"97315 Yucatan, Mexico","lodging,point_of_interest,establishment",False,REGALOS Y NOVEDADES SOFI,,Comercio al por menor de regalos,SANTA CRUZ NORTE,41.0,57.7,True,informal,,Sin match en ninguna capa,google_maps
csv_751,PISTA DE MOTOCROSS ACME MX,20.8828414,-89.65820440000002,"C. 83 entre 90 y 94, hacienda Santa cruz palomeque, 97315 Mérida, Yuc., Mexico","race_course,sports_activity_location,event_venue,point_of_interest,establishment",False,,,,,0.0,9999.0,True,informal,,Sin match en ninguna capa,google_maps
csv_752,Un Toque Dulce,20.8817825,-89.6541455,"83x86 y 88 s/n, hacienda Santa cruz palomeque, 97315 Santa Cruz Palomeque, Yuc., Mexico","dessert_shop,confectionery,restaurant,point_of_interest,food_store,food,store,establishment",False,,,,,0.0,9999.0,True,informal,,Sin match en ninguna capa,google_maps
csv_754,BISUTERIA TENDEJON,20.8817792,-89.6540641,"hacienda Santa cruz palomeque, 97315 Santa Cruz Palomeque, Yucatan, Mexico","point_of_interest,establishment",False,,,,,0.0,9999.0,True,informal,,Sin match en ninguna capa,google_maps
csv_756,PELUQUERIA MICHEL,20.8827633,-89.6531875,"C. 86, hacienda Santa cruz palomeque, 97315 Santa Cruz Palomeque, Yuc., Mexico","point_of_interest,establishment",False,,,,,0.0,9999.0,True,informal,,Sin match en ninguna capa,google_maps
csv_759,Taller Manolo,20.8820152,-89.6524125,"C. 84 106, hacienda Santa cruz palomeque, 97315 Santa Cruz Palomeque, Yuc., Mexico","car_repair,service,point_of_interest,establishment",False,,,,,0.0,9999.0,True,informal,,Sin match en ninguna capa,google_maps
csv_763,Pinturas y adhesivos Depther,20.8837173,-89.6291263,"V9M9+QV, Sin Nombre de Col 19, 97315 Merida, Yucatan, Mexico","manufacturer,point_of_interest,establishment",False,,,,,0.0,9999.0,True,informal,,Sin match en ninguna capa,google_maps
csv_767,AMAYA THECNICAL DIESEL,20.8848336,-89.6267695,"97285 por 50 y 50a, Calle 211, Plan de ayala 3, Plan de Ayala III, 97285 Mérida, Yuc., Mexico","car_repair,point_of_interest,service,establishment",False,SETHER,,Reparación y mantenimiento de maquinaria y equipo industrial,PLAN DE AYALA SUR III,50.0,34.4,True,informal,,Sin match en ninguna capa,google_maps
csv_769,Texgen,20.8836534,-89.6261806,"C. 50 entre 211 y 215, Colonia Plan de Ayala, 97390 Xmatkuil, Yuc., Mexico","winery,farm,point_of_interest,service,food,manufacturer,establishment",False,PRODUCTOS METALICOS STEELE,PRODUCTOS METALICOS STEELE SA DE CV,Comercio al por mayor de mobiliario y equipo de oficina,NORA QUINTANA,54.5,81.9,True,informal,,Sin match en ninguna capa,google_maps
csv_773,Expendio Ruiz,20.8849145,-89.6250395,"Haltunchén, 97285 Merida, Yucatan, Mexico","liquor_store,point_of_interest,store,establishment",False,ABARROTES SIX RUIZ,,"Comercio al por menor en tiendas de abarrotes, ultramarinos y misceláneas",PLAN DE AYALA SUR III,63.2,7.7,True,informal,,Sin match en ninguna capa,google_maps
csv_775,Logitextil,20.8834819,-89.6261518,"C. 50 entre 211 y 215, Colonia Plan de Ayala, 97390 Xmatkuil, Yuc., Mexico","wholesaler,point_of_interest,manufacturer,establishment",False,COMISARIATO BENEDETTIS,COMISARIATO BENEDETTIS SA,Comercio al por mayor de abarrotes,XMATKUIL,42.9,76.1,True,informal,,Sin match en ninguna capa,google_maps
csv_776,SOLUCLEAN,20.8829894,-89.6255592,"Calle 50 sin número, entre 215 y 217, plan de Ayala, 97285 Mérida, Yuc., Mexico","point_of_interest,service,establishment",False,SUCURSAL MERIDA,GALLETAS CUETARA SA DE CV,Comercio al por mayor de pan y pasteles,XMATKUIL,50.0,26.3,True,informal,,Sin match en ninguna capa,google_maps
csv_777,Bodegas Mamsa,20.884441,-89.6232222,"Sin Nombre de Col 19, 97315 Xmatkuil, Yuc., Mexico","winery,farm,point_of_interest,service,food,manufacturer,establishment",False,,,,,0.0,9999.0,True,informal,,Sin match en ninguna capa,google_maps
csv_778,Cuétara Distribución S.A. DE C.V.,20.8849949,-89.6246707,"C. 50 710, Plan de Ayala ÌII, Plan de Ayala III, 97118 Mérida, Yuc., Mexico","store,point_of_interest,establishment",False,ANTOJITOS Y LONCHERIA SAN JUDAS TADEO,,Restaurantes con servicio de preparación de antojitos,PLAN DE AYALA SUR III,44.0,55.5,True,informal,,Sin match en ninguna capa,google_maps
csv_779,Expendio la Huera,20.8851753,-89.6245478,"C. 50 708, Plan de Ayala ÌII, Plan de Ayala III, 97118 Xmatkuil, Yuc., Mexico","liquor_store,point_of_interest,store,establishment",False,TENDEJON JUANES,,"Comercio al por menor en tiendas de abarrotes, ultramarinos y misceláneas",PLAN DE AYALA SUR III,53.8,39.1,True,informal,,Sin match en ninguna capa,google_maps
csv_781,Terreno Alexa,20.8830866,-89.6164873,"C. 211, Plan de Ayala III, 97285 Mérida, Yuc., Mexico","service,point_of_interest,establishment",False,,,,,0.0,9999.0,True,informal,,Sin match en ninguna capa,google_maps
csv_782,Terreno Doña Angelica,20.8831306,-89.61536020000001,"V9MM+7V, 97285 Merida, Yucatan, Mexico","service,point_of_interest,establishment",False,,,,,0.0,9999.0,True,informal,,Sin match en ninguna capa,google_maps
csv_783,Casa Migue,20.8845,-89.6155556,"V9QP+F5, 97285 Merida, Yucatan, Mexico","point_of_interest,service,establishment",False,,,,,0.0,9999.0,True,informal,,Sin match en ninguna capa,google_maps
csv_784,Terreno plan de Ayala,20.8845856,-89.614992,"V9QP+F5, 97285 Merida, Yucatan, Mexico","point_of_interest,service,establishment",False,,,,,0.0,9999.0,True,informal,,Sin match en ninguna capa,google_maps
csv_786,Pista Mtb Lyons,20.8845926,-89.604317,"Ejido Tahdzibichen, 97000 Mérida, Yuc., Mexico","adventure_sports_center,sports_complex,sports_activity_location,point_of_interest,establishment",False,,,,,0.0,9999.0,True,informal,,Sin match en ninguna capa,google_maps
csv_788,Barbacoa el Mayor,20.8849628,-89.5975756,"C. Comisaria Tahdzibichén 49, 97315 Tahdzibichén, Yuc., Mexico","restaurant,point_of_interest,food,establishment",False,SIX TAHZIBICHEN,CONTROLADORA DE NEGOCIOS COMERCIALES SA DE CV,Comercio al por menor de cerveza,TAHZIBICHEN,25.0,24.2,True,informal,,Sin match en ninguna capa,google_maps
csv_793,Frappeta pasteles y más,20.8835972,-89.5985386,"Sin Nombre Núm. 3 570, 97315 Tahdzibichén, Yuc., Mexico","bakery,point_of_interest,food_store,store,food,establishment",False,,,,,0.0,9999.0,True,informal,,Sin match en ninguna capa,google_maps
csv_794,Dianita Sabor Y Calidad Para Su Paladar,20.8839668,-89.5973868,"Mérida - Timucuy, 97315 Tahdzibichén, Yuc., Mexico","point_of_interest,establishment",False,SIX TAHZIBICHEN,CONTROLADORA DE NEGOCIOS COMERCIALES SA DE CV,Comercio al por menor de cerveza,TAHZIBICHEN,33.3,88.3,True,informal,,Sin match en ninguna capa,google_maps
csv_797,"ACEITES Y LUBRICANTES ""A.B.S""",20.883654,-89.5984093,"C. 53 570, 97315 Tahdzibichén, Yuc., Mexico","car_repair,point_of_interest,service,establishment",False,,,,,0.0,9999.0,True,informal,,Sin match en ninguna capa,google_maps
csv_799,Todo limpio limpio,20.8847065,-89.5975878,"C. Comisaria Tahdzibichén 49 115, 97315 Tahdzibichén, Yuc., Mexico","home_goods_store,point_of_interest,store,establishment",False,SIX TAHZIBICHEN,CONTROLADORA DE NEGOCIOS COMERCIALES SA DE CV,Comercio al por menor de cerveza,TAHZIBICHEN,33.3,7.0,True,informal,,Sin match en ninguna capa,google_maps
csv_801,Micheladas & Drinks Majo,20.8836239,-89.598472,"Sin Nombre Núm. 3 570, 97315 Tahdzibichén, Yuc., Mexico","bar,point_of_interest,establishment",False,,,,,0.0,9999.0,True,informal,,Sin match en ninguna capa,google_maps
csv_802,TORTILLERIA SAN MIGUEL,20.8828271,-89.5977606,"97315 Tahdzibichén, Yucatan, Mexico","grocery_store,point_of_interest,food_store,store,food,establishment",False,,,,,0.0,9999.0,True,informal,,Sin match en ninguna capa,google_maps
csv_803,Caldos y panuchos,20.8837167,-89.59729709999999,"Calle 53 & Mérida - Timucuy, 97315 Tahdzibichén, Yuc., Mexico","restaurant,food,point_of_interest,establishment",False,,,,,0.0,9999.0,True,informal,,Sin match en ninguna capa,google_maps
csv_805,Inicio,20.8848253,-89.5974356,"Mérida - Timucuy, 97315 Tahdzibichén, Yuc., Mexico","tailor,service,point_of_interest,establishment",False,SIX TAHZIBICHEN,CONTROLADORA DE NEGOCIOS COMERCIALES SA DE CV,Comercio al por menor de cerveza,TAHZIBICHEN,50.0,13.6,True,informal,,Sin match en ninguna capa,google_maps
csv_806,Antojitos Doña Vilma Six,20.884773300000003,-89.5975943,"Mérida - Timucuy, 97315 Tahdzibichén, Yuc., Mexico","restaurant,food,point_of_interest,establishment",False,SIX TAHZIBICHEN,CONTROLADORA DE NEGOCIOS COMERCIALES SA DE CV,Comercio al por menor de cerveza,TAHZIBICHEN,35.9,6.5,True,informal,,Sin match en ninguna capa,google_maps
csv_809,Ellar Fashion,20.8844026,-89.5589974,"C. 20, 97315 Hunxectamán, Yuc., Mexico","makeup_artist,clothing_store,point_of_interest,store,establishment",False,,,,,0.0,9999.0,True,informal,,Sin match en ninguna capa,google_maps
csv_811,Tienda San Carlos,20.8831575,-89.55838600000001,"VCJR+VV, 97315 Hunxectamán, Yuc., Mexico","grocery_store,point_of_interest,food_store,food,store,establishment",False,,,,,0.0,9999.0,True,informal,,Sin match en ninguna capa,google_maps
csv_812,Procalsur - Travay,20.8842429,-89.52653579999999,"VFMF+M9, Jalapa, 97376 Yucatan, Mexico","general_contractor,service,point_of_interest,establishment",False,PULVER TRITURADOS,PULVER TRITURADOS SA DE CV,Minería de arena y grava para la construcción,K 3.2 CARRETERA SAN ANTONIO TEHUITZ-SUBINCANCAB,48.0,42.5,True,informal,,Sin match en ninguna capa,google_maps
csv_816,Utopía Cafetería Umán,20.8870747,-89.7484124,"Umán, 97392 Uman, Yucatan, Mexico","cafeteria,brunch_restaurant,breakfast_restaurant,restaurant,food,point_of_interest,establishment",False,PANADERIA JUNAS,,Comercio al por menor de otros alimentos,CENTRO,60.0,71.5,True,informal,,Sin match en ninguna capa,google_maps
csv_823,NUEVO MERCADO,20.8868463,-89.74997909999999,"Umán, 97390 Uman, Yucatan, Mexico","market,point_of_interest,establishment",False,COMERCIO DE DESECHOS METALICOS,,Comercio al por mayor de desechos metálicos,CENTRO,57.1,75.9,True,informal,,Sin match en ninguna capa,google_maps
csv_828,Centro Botanero “La Carreta”,20.8866502,-89.7481506,"Centro, 97390 Umán, Yuc., Mexico","restaurant,food,point_of_interest,establishment",False,ALIMENTOS BALANCEADOS EL CABALLITO,,"Comercio al por mayor de medicamentos veterinarios y alimentos para animales, excepto mascotas",CENTRO,60.9,39.1,True,informal,,Sin match en ninguna capa,google_maps
csv_834,Italika Service Centers Cesit,20.8850165,-89.7463616,"Calle 15 ENTRE 18 Y 20 no 92C, Umán, 97390 Umán, Yuc., Mexico","car_repair,point_of_interest,service,establishment",False,TALLER DE MOTOS ITALIKA,,Reparación y mantenimiento de motocicletas,CENTRO,57.1,4.5,True,informal,,Sin match en ninguna capa,google_maps
csv_843,Lavanderia BIOCLEAN ll,20.8858423,-89.7460267,"97390, Umán, 97399 Umán, Yuc., Mexico","laundry,point_of_interest,service,establishment",False,PANADERIA LA GLORIETA,,Panificación tradicional,CENTRO,61.1,80.1,True,informal,,Sin match en ninguna capa,google_maps
csv_845,"Turísticos Umanenses ""Tres Reyes""",20.8860615,-89.743697,"C. 13 Num. 90A x 16 y 18, Mejorada, 97390 Umán, Yuc., Mexico","transportation_service,point_of_interest,establishment",False,SERVICIO DE TRANSPORTE TURISTICO,,Organización de excursiones y paquetes turísticos para agencias de viajes,CENTRO,50.0,3.5,True,informal,,Sin match en ninguna capa,google_maps
csv_846,Refacciones Italika Umán,20.8848799,-89.7461939,"C. 18 81, Umán, 97390 Umán, Yuc., Mexico","auto_parts_store,car_repair,point_of_interest,service,store,establishment",False,TALLER DE MOTOS ITALIKA,,Reparación y mantenimiento de motocicletas,CENTRO,57.1,19.7,True,informal,,Sin match en ninguna capa,google_maps
csv_847,Campo Cepeda Peraza,20.8859504,-89.73936169999999,"C. 10, Umán, 97390 Umán, Yuc., Mexico","athletic_field,sports_activity_location,point_of_interest,establishment",False,,,,,0.0,9999.0,True,informal,,Sin match en ninguna capa,google_maps
csv_854,PEDIATRA,20.885834100000004,-89.74297229999999,"C. 13, Umán, 97390 Umán, Yuc., Mexico","point_of_interest,establishment",False,CENTRAL VETERINARIA MEJORADA,,Servicios veterinarios para mascotas prestados por el sector privado,CENTRO,62.5,83.4,True,informal,,Sin match en ninguna capa,google_maps
csv_863,FRAACIONAMIENTO GRAN VILLAS UMAN,20.8870186,-89.7364998,"C. 19 67, Umán, 97390 Umán, Yuc., Mexico","point_of_interest,service,establishment",False,TIENDA JAQUE 2,,Comercio al por menor de dulces y materias primas para repostería,CIUDAD INDUSTRIAL,42.9,94.9,True,informal,,Sin match en ninguna capa,google_maps
csv_864,Llantera los primos,20.8874975,-89.7351053,"Umán, 97390 Uman, Yucatan, Mexico","car_repair,point_of_interest,service,establishment",False,CAR WASH TREJO,,Lavado y lubricado de automóviles y camiones,CIUDAD INDUSTRIAL,44.4,45.2,True,informal,,Sin match en ninguna capa,google_maps
csv_865,Servicio automotriz el amigo pio,20.885876,-89.7372127,"C. 14-B 81, Umán, 97390 Umán, Yuc., Mexico","car_repair,point_of_interest,service,establishment",False,TENDEJON SIN NOMBRE,,"Comercio al por menor en tiendas de abarrotes, ultramarinos y misceláneas",CEPEDA PERAZA,33.3,94.2,True,informal,,Sin match en ninguna capa,google_maps
csv_866,Casa Los Abejos,20.8851388,-89.7348722,"C. 29-A 314, Siglo XXI, Umán, 97390 Umán, Yuc., Mexico","real_estate_agency,point_of_interest,service,establishment",False,SIX EL QUERUBIN UMAN,,Comercio al por menor de cerveza,SIGLO XXI,33.3,49.9,True,informal,,Sin match en ninguna capa,google_maps
csv_868,Teléfono Público Habla mas conmigo,20.8874849,-89.7363489,"por 16-B, C. 19 sn, brisas, Umán, 97390 Umán, Yuc., Mexico","point_of_interest,establishment",False,TALLER DE BICICLETAS BALAM,,Reparación y mantenimiento de bicicletas,CIUDAD INDUSTRIAL,48.9,69.8,True,informal,,Sin match en ninguna capa,google_maps
csv_869,visitar uman,20.8852812,-89.7344628,"C. 29-A 303, Siglo XXI, Umán, 97390 Umán, Yuc., Mexico","barber_shop,hair_care,health,point_of_interest,service,establishment",False,SIX EL QUERUBIN UMAN,,Comercio al por menor de cerveza,SIGLO XXI,63.2,57.0,True,informal,,Sin match en ninguna capa,google_maps
csv_872,ADDONSOFT,20.8877243,-89.7355492,"C. 6a 98, Umán, 97390 Umán, Yuc., Mexico","point_of_interest,establishment",False,VENTA DE DESAYUNOS LA GENOVEVA,,Restaurantes con servicio de preparación de antojitos,BRISAS DE UMAN,33.3,64.4,True,informal,,Sin match en ninguna capa,google_maps
csv_874,Tu eleccion a la medida,20.8863962,-89.7340653,"C. 25 297, Siglo XXI, Umán, 97390 Umán, Yuc., Mexico","nail_salon,beauty_salon,point_of_interest,service,establishment",False,,,,,0.0,9999.0,True,informal,,Sin match en ninguna capa,google_maps
csv_875,Refrigeración y Aire Acondicionado Alcocer,20.8875344,-89.73633769999999,"C. 17 Supermanzana por Lote 6a y 6b, Brisas de, Umán, 97390 Umán, Yuc., Mexico","point_of_interest,establishment",False,CERVECERIA SIX EL GATO VOLADOR,,Comercio al por menor de cerveza,CEPEDA PERAZA,48.1,92.1,True,informal,,Sin match en ninguna capa,google_maps
csv_876,"Abarrotes ""La Central"" Suc. Brisas de Umán",20.8873005,-89.7362813,"C. 19 x 8, Brisas de, 97390 Umán, Yuc., Mexico","wholesaler,point_of_interest,establishment",False,HERRERIA JUAN PABLO,,Fabricación de productos de herrería,CEPEDA PERAZA,48.3,73.6,True,informal,,Sin match en ninguna capa,google_maps
csv_879,Tienda Os Y Emi,20.8878164,-89.7328924,"Umán, 97390 Uman, Yucatan, Mexico","store,point_of_interest,establishment",False,AGENCIA MEMIS,,Comercio al por menor de cerveza,SIGLO XXI,58.3,89.1,True,informal,,Sin match en ninguna capa,google_maps
